     3.05           OBSERVATION DATA    M                   RINEX VERSION / TYPE
BNC 2.13.1          rtproc              20240510 215943 UTC PGM / RUN BY / DATE
SUN600SWE                                                   MARKER NAME
10440M002                                                   MARKER NUMBER
                                                            MARKER TYPE
                    LMV                                     OBSERVER / AGENCY
6116R40021          TRIMBLE ALLOY       6.15                REC # / TYPE / VERS
25070044            LEIAR20         LEIM                    ANT # / TYPE
  2838911.2970   903817.0220  5620660.9100                  APPROX POSITION XYZ
        0.0030        0.0000        0.0000                  ANTENNA: DELTA H/E/N
C   19 C2I L2I D2I S2I C6I L6I S6I C7I L7I S7I C5X L5X S5X  SYS / # / OBS TYPES
       C7D L7D S7D C1X L1X S1X                              SYS / # / OBS TYPES
E   16 C1X L1X D1X S1X C6X L6X S6X C7X L7X S7X C8X L8X S8X  SYS / # / OBS TYPES
       C5X L5X S5X                                          SYS / # / OBS TYPES
G   18 C1C L1C D1C S1C C2W L2W S2W C2X L2X D2X S2X C5X L5X  SYS / # / OBS TYPES
       S5X C1X L1X S1X D1X                                  SYS / # / OBS TYPES
R   13 C1C L1C D1C S1C C1P L1P S1P C2C L2C S2C C2P L2P S2P  SYS / # / OBS TYPES
  2024     5    10    22     0    0.0000000     GPS         TIME OF FIRST OBS
                                                            GLONASS COD/PHS/BIS
 25 R01  1 R02 -4 R03  5 R04  6 R05  1 R06 -4 R07  5 R08  6 GLONASS SLOT / FRQ #
    R09 -2 R10 -7 R11  0 R12 -1 R13 -2 R14 -7 R15  0 R16 -1 GLONASS SLOT / FRQ #
    R17  4 R18 -3 R19  3 R20  2 R21  4 R22 -3 R23  3 R24  2 GLONASS SLOT / FRQ #
    R25 -5                                                  GLONASS SLOT / FRQ #
                                                            END OF HEADER
> 2024 05 10 22 00  0.0000000  0 44
G04  24623841.293   129399223.666       -3646.251          35.000    24623848.190   100830823.690          20.000    24623847.922   100830819.704                          41.000    24623849.852    96629541.541          45.000    24623839.524   129399457.670          37.000
G05  22264517.139   117000875.908        2617.311          45.000    22264522.464    91169573.379          45.000    22264522.679    91169562.397                          47.000
G06                                                                                                                                                                                  25746640.886   101035540.914          26.000
G07  21114443.806   110957169.581         763.663          51.000    21114447.666    86459977.552          54.000    21114448.184    86459974.564                          52.000
G09  21441083.417   112673734.602       -2535.672          48.000    21441088.974    87797845.154          52.000    21441089.296    87797836.157                          49.000    21441087.223    84139587.314          54.000
G11  23673393.501   124404674.183       -3069.442          40.000    23673399.219    96938696.955          28.000    23673400.130    96938689.967                          44.000    23673402.274    92899637.325          49.000    23673391.892   124404793.181          42.000
G13  24293467.253   127663032.916        3786.697          31.000
G16  23051623.478   121137038.626       -1739.361          42.000    23051628.070    94392634.512          29.000
G18  25680795.949   134953625.488        3150.022          31.000    25680802.596   105158576.660          17.000    25680804.097   105158686.697                          38.000    25680805.902   100776971.900          42.000    25680793.983   134953477.480          32.000
G20  21003919.628   110376394.794         477.695          49.000    21003922.648    86007380.281          42.000
G26  25660785.574   134848352.990       -3456.571          29.000    25660793.382   105076664.797          22.000    25660793.365   105076730.827                          36.000    25660790.756   100698573.773          43.000
G27  24997978.982   131365246.038        2848.304          34.000    24997985.576   102362571.261          27.000    24997986.380   102362602.267                          37.000    24997983.360    98097456.973          41.000
G29  25282801.327   132861989.752       -2479.844          32.000    25282809.886   103528891.102          22.000    25282809.547   103528653.123                          34.000
G30  22170895.128   116508849.535        2751.809          47.000    22170902.204    90786229.853          48.000    22170902.883    90786220.865                          48.000    22170900.167    87003464.351          54.000
R03  20912328.556   111945420.281       -3181.149          49.000    20912327.627   111945409.301          48.000    20912331.540    87068704.889          49.000    20912331.236    87068702.890          48.000
R04  19122942.161   102402588.573         368.955          53.000    19122941.322   102402613.593          52.000    19122943.734    79646530.549          54.000    19122943.805    79646524.551          51.000
R05  21599358.931   115461009.733        3598.291          46.000    21599358.681   115460995.739          45.000    21599363.363    89803185.890          47.000    21599362.969    89803095.882          45.000
R12  22783172.750   121703615.588       -3912.719          43.000    22783171.892   121703690.593          42.000    22783176.628    94658487.308          44.000    22783177.575    94658464.300          41.000
R13  20080297.367   107227724.494       -1012.305          42.000    20080296.117   107227729.465          39.000    20080299.762    83399348.867          44.000    20080299.905    83399347.865          46.000
R14  21144229.913   112710729.689        3608.166          50.000    21144228.930   112710669.683          47.000    21144235.041    87663913.595          49.000    21144234.541    87663914.593          48.000
R20  21785811.786   116498530.494       -2220.143          36.000    21785812.018   116498523.506          35.000    21785817.861    90609992.757          39.000    21785817.272    90609982.766          38.000
R21  22284427.162   119248457.556        1902.730          43.000    22284425.983   119248427.552          43.000    22284430.647    92748829.761          43.000    22284431.379    92748829.789          41.000
E04  24504417.323   128771697.913       -1830.496          50.000    24504412.230   104522499.533          56.000    24504416.233    98669275.403          54.000    24504418.145    97415020.296          57.000    24504417.806    96160749.592          54.000
E05  25486196.338   133930902.603        2792.362          42.000    25486190.334   108710140.705          45.000    25486197.428   102622403.063          45.000    25486199.144   101317889.088          48.000    25486198.804   100013364.520          44.000
E09  23630201.267   124177629.541         814.329          52.000    23630196.406   100793538.556          59.000    23630201.017    95149133.262          56.000    23630203.107    93939623.211          59.000    23630203.000    92730099.565          55.000
E15  27889131.576   146558370.934        2491.450          38.000    27889129.824   118959705.625          43.000    27889136.597   112297996.001          43.000    27889139.331   110870486.555          48.000    27889139.527   109442969.513          45.000
E21  26515185.813   139338319.407       -1458.574          44.000    26515183.847   113099318.791          50.000    26515187.564   106765780.406          47.000    26515189.941   105408604.112          51.000    26515189.744   104051407.240          47.000
E31  27308474.476   143506957.028        3208.849          40.000    27308471.581   116482962.348          47.000    27308479.175   109959910.786          45.000    27308481.570   108562123.524          49.000    27308481.713   107164328.678          45.000
E34  25628070.109   134676513.800          17.150          46.000    25628067.321   109315376.196          51.000    25628072.753   103193744.415          51.000    25628074.701   101881971.478          53.000    25628074.540   100570189.964          49.000
E36  26270668.032   138053367.174       -2640.792          43.000    26270664.191   112056299.818          49.000    26270670.748   105781201.093          47.000    26270672.821   104436535.521          51.000    26270673.054   103091859.341          47.000
C05  40610332.919   211468882.316         -63.556          33.000    40610326.522   171835561.932          38.000    40610328.559   163520968.778          38.000
C06  39640809.194   206420204.672       -1214.966          35.000    39640798.437   167733255.854          39.000    39640803.101   159617205.807          41.000
C12  26137871.761   136106635.985        1814.986          35.000    26137862.166   110597872.502          40.000    26137868.206   105246387.372          44.000
C16  40674664.011   211803827.967       -1228.259          33.000    40674657.310   172107911.185          36.000    40674664.350   163780160.248          40.000
C19  24330928.677   126697663.018        2776.172          45.000    24330918.616   102952219.017          48.000                                                    24330927.068    95479934.220          50.000    24330925.139    97970708.491          45.000    24330928.409   127860174.974          45.000
C20  21862734.803   113845116.792         160.613          54.000    21862721.973    92508459.063          53.000                                                    21862729.603    85794184.956          57.000    21862727.923    88032273.868          52.000    21862733.909   114889550.581          54.000
C23  23175922.957   120683203.902       -1018.162          50.000    23175907.214    98064981.167          51.000                                                    23175914.147    90947371.565          54.000    23175912.110    93319929.242          49.000    23175922.314   121790388.687          50.000
C25  26120351.578   136015607.616       -3199.136          39.000    26120343.304   110523772.597          41.000                                                    26120348.379   102501940.122          43.000    26120347.289   105175896.969          39.000    26120349.576   137263429.670          39.000
C32  23995657.470   124951759.284       -2863.244          46.000    23995652.145   101533528.967          49.000                                                    23995658.917    94164210.202          51.000    23995656.952    96620624.815          46.000    23995657.881   126098098.311          47.000
C37  23323452.237   121451377.406        2218.895          50.000    23323448.127    98689176.370          51.000                                                    23323453.381    91526296.821          53.000    23323451.808    93913921.235          48.000    23323451.272   122565604.072          50.000
C39  41254583.977   214823540.120       -1336.286          35.000    41254575.400   174561712.769          38.000                                                    41254580.725   161891941.401          37.000    41254578.992   166115205.040          30.000    41254583.977   216794391.716          36.000
C40  40501420.616   210901602.223        2015.361          36.000    40501413.076   171374810.267          40.000                                                    40501418.883   158936343.334          44.000    40501416.953   163082511.153          38.000    40501420.491   212836444.901          37.000
C44  25394636.340   132236494.235         435.845          38.000    25394630.569   107452956.877          43.000                                                    25394637.716    99653946.648          44.000    25394634.982   102253662.721          38.000    25394633.821   133449670.657          34.000
C60  41468714.859   215938461.888         -27.972          35.000    41468695.668   175467624.270          39.000                                                                                                    41468702.869   166977322.230          40.000
> 2024 05 10 22 00  1.0000000  0 43
G04  24624534.843   129402869.818       -3646.141          34.000    24624541.955   100833664.840          21.000    24624541.937   100833660.834                          41.000    24624543.670    96632264.297          45.000    24624533.378   129403103.828          37.000
G05  22264019.148   116998258.788        2616.919          45.000    22264024.490    91167534.067          45.000    22264024.776    91167523.092                          47.000
G07  21114298.638   110956406.143         763.244          51.000    21114302.248    86459382.661          54.000    21114302.784    86459379.670                          52.000
G09  21441565.827   112676270.441       -2535.982          48.000    21441571.509    87799821.133          52.000    21441571.831    87799812.135                          49.000    21441569.847    84141480.958          54.000
G11  23673977.407   124407743.748       -3069.717          40.000    23673983.411    96941088.829          27.000    23673984.072    96941081.836                          44.000    23673986.341    92901929.532          49.000    23673975.959   124407862.734          42.000
G13  24292746.488   127659246.207        3786.630          32.000
G16  23051954.823   121138778.255       -1739.873          42.000    23051959.022    94393990.076          29.000
G18  25680196.640   134950475.560        3149.755          31.000    25680203.358   105156122.102          17.000    25680204.520   105156232.201                          38.000    25680206.557   100774619.666          42.000    25680194.924   134950327.570          33.000
G20  21003828.746   110375917.465         477.047          49.000    21003831.891    86007008.345          42.000
G26  25661443.332   134851809.644       -3456.785          29.000    25661451.141   105079358.319          22.000    25661451.141   105079424.339                          36.000    25661448.371   100701155.089          42.000
G27  24997436.890   131362398.024        2847.736          34.000    24997443.769   102360352.025          26.000    24997444.591   102360383.026                          37.000    24997441.303    98095330.211          41.000
G29  25283273.301   132864469.948       -2480.128          32.000    25283281.807   103530823.719          23.000    25283281.307   103530585.778                          34.000
G30  22170371.529   116506097.859        2751.541          47.000    22170378.606    90784085.685          48.000    22170379.302    90784076.690                          48.000    22170376.569    87001409.523          54.000
R03  20912922.594   111948601.604       -3181.515          49.000    20912921.897   111948590.622          47.000    20912926.203    87071179.255          49.000    20912925.256    87071177.253          48.000
R04  19122873.205   102402219.993         368.316          54.000    19122872.740   102402245.000          52.000    19122875.010    79646243.876          54.000    19122874.974    79646237.868          51.000
R05  21598685.876   115457411.488        3598.108          46.000    21598685.644   115457397.500          45.000    21598689.843    89800387.267          46.000    21598689.808    89800297.275          45.000
R12  22783905.023   121707528.324       -3912.915          43.000    22783904.290   121707603.329          42.000    22783908.686    94661530.552          44.000    22783909.901    94661507.555          41.000
R13  20080487.154   107228737.218       -1013.054          41.000    20080485.761   107228742.252          39.000    20080489.102    83400136.566          45.000    20080489.513    83400135.564          46.000
R14  21143553.249   112707121.756        3607.716          49.000    21143552.176   112707061.748          47.000    21143558.216    87661107.421          49.000    21143557.823    87661108.424          48.000
R20  21786226.937   116500751.102       -2221.034          37.000    21786226.722   116500744.106          35.000    21786233.030    90611719.862          38.000    21786232.494    90611709.875          37.000
R21  22284071.676   119246555.199        1902.044          43.000    22284070.193   119246525.210          43.000    22284075.125    92747350.164          43.000    22284075.821    92747350.176          41.000
E04  24504765.840   128773528.501       -1830.727          50.000    24504760.605   104523985.386          56.000    24504764.554    98670678.041          54.000    24504766.537    97416405.102          57.000    24504766.216    96162116.568          53.000
E05  25485665.003   133928110.273        2792.251          42.000    25485658.874   108707874.191          45.000    25485666.200   102620263.472          46.000    25485667.791   101315776.699          48.000    25485667.255   100011279.330          44.000
E09  23630046.485   124176815.349         814.055          51.000    23630041.482   100792877.688          59.000    23630046.110    95148509.405          56.000    23630048.183    93939007.284          60.000    23630048.093    92729491.568          56.000
E15  27888657.653   146555879.473        2491.341          39.000    27888655.688   118957683.404          43.000    27888662.478   112296087.020          44.000    27888665.123   110868601.832          49.000    27888665.337   109441109.069          46.000
E21  26515463.372   139339778.097       -1458.976          43.000    26515461.460   113100502.798          50.000    26515465.177   106766898.111          47.000    26515467.518   105409707.609          51.000    26515467.429   104052496.513          47.000
E31  27307864.141   143503748.126        3208.800          40.000    27307860.854   116480357.723          47.000    27307868.448   109957452.011          45.000    27307870.950   108559696.013          49.000    27307871.039   107161932.429          46.000
E34  25628066.964   134676496.930          16.600          46.000    25628063.890   109315362.503          51.000    25628069.716   103193731.480          50.000    25628071.503   101881958.721          53.000    25628071.252   100570177.361          49.000
E36  26271170.652   138056008.125       -2641.114          44.000    26271166.828   112058443.447          49.000    26271173.172   105783224.692          47.000    26271175.388   104438533.392          51.000    26271175.405   103093831.493          47.000
C05  40610345.034   211468945.911         -63.670          33.000    40610338.780   171835613.606          37.000    40610340.728   163521017.950          38.000
C06  39641042.653   206421419.583       -1215.031          36.000    39641031.717   167734243.092          39.000    39641036.578   159618145.280          41.000
C12  26137523.369   136104821.364        1814.525          35.000    26137513.577   110596397.986          40.000    26137519.617   105244984.203          44.000
C16  40674899.953   211805056.221       -1228.190          33.000    40674893.181   172108909.218          36.000    40674900.239   163781109.981          40.000
C19  24330395.733   126694886.890        2775.983          45.000    24330385.387   102949963.190          47.000                                                    24330393.893    95477842.141          50.000    24330392.016    97968561.827          45.000    24330395.161   127857373.374          45.000
C20  21862704.050   113844956.396         160.188          54.000    21862691.131    92508328.727          53.000                                                    21862698.814    85794064.077          57.000    21862697.135    88032149.842          52.000    21862703.103   114889388.708          54.000
C23  23176118.551   120684222.334       -1018.669          50.000    23176102.791    98065808.720          51.000                                                    23176109.706    90948139.069          54.000    23176107.687    93320716.750          49.000    23176117.801   121791416.471          50.000
C25  26120966.236   136018806.720       -3199.234          38.000    26120957.659   110526372.162          40.000                                                    26120962.698   102504351.007          41.000    26120961.590   105178370.757          39.000    26120963.985   137266658.097          38.000
C32  23996207.443   124954622.628       -2863.476          46.000    23996201.993   101535855.669          48.000                                                    23996208.855    94166368.032          52.000    23996206.853    96622838.930          46.000    23996207.639   126100987.927          47.000
C37  23323026.061   121449158.721        2218.511          49.000    23323022.130    98687373.511          51.000                                                    23323027.312    91524624.819          54.000    23323025.739    93912205.612          48.000    23323025.382   122563365.047          49.000
C39  41254840.594   214824876.375       -1336.246          34.000    41254832.089   174562798.534          37.000                                                    41254837.450   161892948.312          36.000    41254835.627   166116238.256          30.000    41254840.791   216795740.254          36.000
C40  40501033.538   210899586.930        2015.238          36.000    40501026.051   171373172.689          40.000                                                    40501031.858   158934824.604          44.000    40501029.892   163080952.815          38.000    40501033.716   212834411.102          38.000
C44  25394552.767   132236058.715         435.215          38.000    25394546.942   107452602.986          43.000                                                    25394553.982    99653618.451          44.000    25394551.320   102253325.960          38.000    25394550.390   133449231.133          34.000
C60  41468720.220   215938489.826         -27.954          35.000    41468701.028   175467646.957          38.000                                                                                                    41468708.283   166977343.822          40.000
> 2024 05 10 22 00  2.0000000  0 43
G04  24625228.608   129406516.063       -3646.272          34.000    24625235.916   100836506.044          20.000    24625235.595   100836502.049                          41.000    24625237.471    96634987.117          44.000    24625227.125   129406750.083          37.000
G05  22263521.084   116995642.170        2616.458          45.000    22263526.391    91165495.160          45.000    22263526.838    91165484.175                          47.000
G07  21114153.363   110955643.207         762.690          51.000    21114157.169    86458788.154          54.000    21114157.580    86458785.158                          52.000
G09  21442048.487   112678806.696       -2536.389          48.000    21442054.169    87801797.436          51.000    21442054.384    87801788.438                          49.000    21442052.436    84143374.906          54.000
G11  23674561.742   124410813.660       -3070.100          40.000    23674567.531    96943480.974          27.000    23674568.139    96943473.977                          43.000    23674570.515    92904222.005          49.000    23674560.187   124410932.651          41.000
G13  24292025.973   127655459.516        3786.720          31.000
G16  23052285.829   121140518.620       -1740.740          41.000    23052290.314    94395346.210          29.000
G18  25679597.277   134947325.996        3149.479          32.000    25679604.103   105153668.015          17.000    25679604.925   105153777.979                          38.000    25679607.212   100772267.699          42.000    25679595.508   134947177.944          32.000
G20  21003738.025   110375440.802         476.447          50.000    21003741.260    86006636.933          42.000
G26  25662100.966   134855266.597       -3456.963          29.000    25662108.989   105082052.081          22.000    25662109.114   105082118.088                          37.000    25662106.309   100703736.604          43.000
G27  24996894.761   131359550.432        2847.429          34.000    24996901.784   102358133.143          27.000    24996902.677   102358164.128                          37.000    24996899.407    98093203.772          41.000
G29  25283745.008   132866950.613       -2480.691          32.000    25283753.817   103532756.728          22.000    25283753.585   103532518.773                          34.000
G30  22169847.717   116503346.614        2751.089          47.000    22169855.007    90781941.853          48.000    22169855.704    90781932.876                          48.000    22169853.024    86999355.024          54.000
R03  20913517.168   111951783.374       -3181.952          49.000    20913516.399   111951772.388          47.000    20913520.170    87073653.978          49.000    20913519.634    87073651.976          48.000
R04  19122804.677   102401852.097         367.637          54.000    19122803.909   102401877.114          52.000    19122806.232    79645957.735          53.000    19122806.357    79645951.737          52.000
R05  21598012.822   115453813.586        3597.812          47.000    21598012.429   115453799.599          45.000    21598016.681    89797588.897          46.000    21598016.824    89797498.893          45.000
R12  22784637.742   121711441.478       -3913.380          43.000    22784636.670   121711516.495          42.000    22784641.548    94664574.125          43.000    22784642.852    94664551.124          41.000
R13  20080676.941   107229750.843       -1013.962          42.000    20080675.798   107229755.837          39.000    20080679.068    83400924.910          45.000    20080679.407    83400923.929          46.000
R14  21142876.602   112703514.404        3607.149          49.000    21142875.619   112703454.390          47.000    21142881.606    87658301.708          49.000    21142881.052    87658302.712          48.000
R20  21786642.213   116502972.558       -2221.753          36.000    21786641.838   116502965.565          35.000    21786648.199    90613447.656          38.000    21786648.020    90613437.670          37.000
R21  22283716.440   119244653.780        1901.073          44.000    22283715.028   119244623.797          43.000    22283719.888    92745871.283          42.000    22283720.621    92745871.285          41.000
E04  24505114.161   128775359.394       -1831.006          50.000    24505109.051   104525471.487          56.000    24505112.946    98672080.931          53.000    24505114.948    97417790.152          57.000    24505114.644    96163483.793          53.000
E05  25485133.685   133925318.060        2792.134          42.000    25485127.735   108705607.773          45.000    25485134.883   102618123.968          46.000    25485136.455   101313664.393          49.000    25485136.008   100009194.221          44.000
E09  23629891.632   124176001.530         813.698          51.000    23629886.504   100792217.115          59.000    23629891.257    95147885.827          56.000    23629893.312    93938391.628          59.000    23629893.223    92728883.837          56.000
E15  27888183.767   146553388.170        2491.309          39.000    27888181.480   118955661.274          44.000    27888188.270   112294178.105          44.000    27888191.022   110866717.193          50.000    27888191.290   109439248.699          47.000
E21  26515741.039   139341237.308       -1459.341          43.000    26515739.127   113101687.219          50.000    26515742.933   106768016.211          47.000    26515745.185   105410811.507          50.000    26515745.024   104053586.205          47.000
E31  27307253.378   143500539.345        3208.621          40.000    27307250.430   116477753.195          47.000    27307257.828   109954993.336          45.000    27307260.329   108557268.606          49.000    27307260.383   107159536.277          45.000
E34  25628063.890   134676480.620          16.098          46.000    25628060.942   109315349.267          51.000    25628066.606   103193718.990          50.000    25628068.411   101881946.380          53.000    25628068.179   100570165.182          49.000
E36  26271673.326   138058649.466       -2641.528          43.000    26271669.466   112060587.388          49.000    26271675.917   105785248.568          46.000    26271678.007   104440531.538          51.000    26271678.097   103095803.921          47.000
C05  40610357.632   211469009.565         -63.586          33.000    40610351.002   171835665.338          38.000    40610353.290   163521067.176          39.000
C06  39641276.040   206422634.511       -1214.919          35.000    39641264.926   167735230.339          39.000    39641269.768   159619084.768          41.000
C12  26137175.084   136103007.159        1814.063          35.000    26137165.095   110594923.802          41.000    26137171.010   105243581.349          44.000
C16  40675135.860   211806284.566       -1228.148          33.000    40675129.159   172109907.328          37.000    40675136.039   163782059.788          40.000
C19  24329862.450   126692111.009        2775.829          45.000    24329852.211   102947707.571          48.000                                                    24329860.717    95475750.236          51.000    24329858.894    97966415.353          45.000    24329862.271   127854572.038          45.000
C20  21862673.208   113844796.506         159.726          54.000    21862660.432    92508198.798          53.000                                                    21862668.169    85793943.568          57.000    21862666.400    88032026.199          52.000    21862672.368   114889227.355          54.000
C23  23176314.199   120685241.305       -1019.123          50.000    23176298.510    98066636.714          51.000                                                    23176305.390    90948906.952          54.000    23176303.460    93321504.676          49.000    23176313.502   121792444.784          50.000
C25  26121580.698   136022006.031       -3199.460          39.000    26121572.085   110528971.878          41.000                                                    26121577.142   102506762.058          43.000    26121575.963   105180844.688          39.000    26121578.268   137269886.795          38.000
C32  23996757.398   124957486.257       -2863.692          46.000    23996751.894   101538182.599          48.000                                                    23996758.738    94168526.079          51.000    23996756.772    96625053.269          46.000    23996757.755   126103877.821          47.000
C37  23322600.296   121446940.495        2218.107          49.000    23322596.132    98685571.019          51.000                                                    23322601.296    91522953.153          54.000    23322599.778    93910490.341          48.000    23322599.385   122561126.471          49.000
C39  41255097.569   214826212.540       -1336.048          35.000    41255088.742   174563884.194          38.000                                                    41255094.138   161893955.137          37.000    41255092.244   166117271.360          31.000    41255097.444   216797088.683          37.000
C40  40500646.620   210897571.711        2015.182          36.000    40500639.061   171371535.167          40.000                                                    40500644.886   158933305.934          44.000    40500642.867   163079394.521          38.000    40500646.709   212832377.406          38.000
C44  25394469.211   132235623.788         434.731          39.000    25394463.458   107452249.584          44.000                                                    25394470.409    99653290.693          45.000    25394467.818   102252989.663          38.000    25394466.888   133448792.242          35.000
C60  41468725.687   215938517.741         -27.927          35.000    41468706.460   175467669.629          38.000                                                                                                    41468713.680   166977365.392          39.000
> 2024 05 10 22 00  3.0000000  0 43
G04  24625922.766   129410162.339       -3646.265          35.000    24625929.788   100839347.288          19.000    24625929.324   100839343.321                          41.000    24625931.415    96637710.002          45.000    24625921.086   129410396.355          37.000
G05  22263023.557   116993026.010        2616.008          45.000    22263028.668    91163456.591          44.000    22263028.900    91163445.608                          47.000
G07  21114008.195   110954880.764         762.336          51.000    21114011.912    86458194.040          54.000    21114012.484    86458191.052                          52.000
G09  21442531.165   112681343.295       -2536.709          48.000    21442536.901    87803773.992          51.000    21442537.080    87803764.988                          49.000    21442535.186    84145269.100          54.000
G11  23675146.130   124413883.900       -3070.329          40.000    23675151.884    96945873.362          28.000    23675152.509    96945866.388                          44.000    23675154.832    92906514.728          48.000    23675144.308   124414002.888          41.000
G13  24291305.726   127651672.991        3786.231          31.000
G16  23052616.906   121142259.678       -1741.236          41.000    23052621.802    94396702.886          28.000
G18  25678998.236   134944176.623        3149.338          31.000    25679004.740   105151213.939          15.000    25679005.562   105151323.954                          38.000    25679007.742   100769915.918          41.000    25678996.127   134944028.635          32.000
G20  21003647.412   110374964.770         475.825          49.000    21003650.503    86006265.999          42.000
G26  25662758.671   134858723.736       -3457.243          29.000    25662766.855   105084745.973          22.000    25662767.070   105084811.973                          36.000    25662764.246   100706318.251          43.000
G27  24996352.794   131356703.248        2847.053          34.000    24996359.977   102355914.583          28.000    24996360.853   102355945.614                          37.000    24996357.511    98091077.700          42.000
G29  25284217.447   132869431.683       -2481.259          31.000    25284225.953   103534690.032          23.000    25284225.631   103534452.040                          34.000
G30  22169324.423   116500595.695        2750.846          47.000    22169331.445    90779798.291          48.000    22169332.249    90779789.291                          48.000    22169329.479    86997300.764          54.000
R03  20914111.652   111954965.543       -3182.308          49.000    20914110.759   111954954.555          47.000    20914114.815    87076128.987          49.000    20914114.065    87076127.000          48.000
R04  19122736.185   102401484.850         367.013          54.000    19122735.202   102401509.858          52.000    19122737.651    79645672.096          53.000    19122737.829    79645666.096          51.000
R05  21597339.982   115450215.927        3597.574          47.000    21597339.356   115450201.927          45.000    21597343.984    89794790.729          46.000    21597343.806    89794700.722          45.000
R12  22785370.247   121715355.032       -3913.750          43.000    22785369.121   121715430.052          41.000    22785374.357    94667618.010          43.000    22785375.214    94667595.018          41.000
R13  20080866.907   107230765.347       -1014.806          42.000    20080865.584   107230770.347          39.000    20080869.855    83401713.969          45.000    20080869.283    83401712.951          46.000
R14  21142199.938   112699907.549        3606.691          49.000    21142198.777   112699847.550          47.000    21142204.477    87655496.383          49.000    21142204.334    87655497.390          47.000
R20  21787058.257   116505194.815       -2222.430          36.000    21787058.186   116505187.821          35.000    21787063.368    90615176.053          38.000    21787063.547    90615166.066          38.000
R21  22283361.203   119242753.112        1900.386          43.000    22283359.953   119242723.138          42.000    22283364.456    92744392.976          42.000    22283365.242    92744392.997          40.000
E04  24505462.661   128777190.490       -1831.163          50.000    24505457.497   104526957.749          56.000    24505461.428    98673483.960          53.000    24505463.394    97419175.342          57.000    24505463.036    96164851.144          53.000
E05  25484602.422   133922525.921        2792.099          42.000    25484596.310   108703341.419          45.000    25484603.655   102615984.523          46.000    25484605.156   101311552.144          49.000    25484604.602   100007109.173          44.000
E09  23629736.744   124175187.962         813.464          52.000    23629731.847   100791556.748          59.000    23629736.440    95147262.434          56.000    23629738.495    93937776.155          59.000    23629738.459    92728276.299          56.000
E15  27887709.827   146550897.117        2490.965          38.000    27887707.289   118953639.313          44.000    27887714.097   112292269.315          44.000    27887716.939   110864832.668          48.000    27887717.171   109437388.446          45.000
E21  26516019.081   139342696.935       -1459.720          43.000    26516016.973   113102871.996          50.000    26516020.689   106769134.633          47.000    26516022.923   105411915.701          50.000    26516022.905   104054676.182          47.000
E31  27306642.776   143497330.664        3208.677          40.000    27306639.559   116475148.748          47.000    27306647.261   109952534.736          45.000    27306649.727   108554841.246          49.000    27306649.995   107157140.166          45.000
E34  25628060.996   134676464.816          15.654          46.000    25628057.797   109315336.438          51.000    25628063.587   103193706.868          50.000    25628065.391   101881934.413          54.000    25628065.159   100570153.354          49.000
E36  26272175.999   138061291.051       -2641.606          43.000    26272172.247   112062731.529          49.000    26272178.555   105787272.644          47.000    26272180.699   104442529.884          51.000    26272180.877   103097776.533          48.000
C05  40610369.550   211469073.155         -63.511          34.000    40610363.171   171835717.003          38.000    40610365.387   163521116.341          39.000
C06  39641508.999   206423849.439       -1214.931          35.000    39641498.170   167736217.573          38.000    39641502.977   159620024.228          41.000
C12  26136826.852   136101193.466        1813.679          35.000    26136816.774   110593450.040          40.000    26136822.635   105242178.907          44.000
C16  40675371.677   211807512.870       -1228.495          34.000    40675365.120   172110905.404          35.000    40675372.071   163783009.559          39.000
C19  24329329.649   126689335.323        2775.616          45.000    24329319.214   102945452.104          48.000                                                    24329327.648    95473658.467          50.000    24329325.879    97964269.018          45.000    24329329.220   127851770.881          45.000
C20  21862642.777   113844637.059         159.296          54.000    21862629.858    92508069.236          53.000                                                    21862637.524    85793823.412          57.000    21862635.826    88031902.899          52.000    21862641.866   114889066.444          54.000
C23  23176510.044   120686260.778       -1019.644          50.000    23176494.265    98067465.115          51.000                                                    23176501.163    90949675.238          54.000    23176499.233    93322292.993          49.000    23176509.311   121793473.625          50.000
C25  26122195.035   136025205.414       -3199.418          39.000    26122186.440   110531571.660          41.000                                                    26122191.444   102509173.098          42.000    26122190.389   105183318.674          39.000    26122192.677   137273115.530          39.000
C32  23997307.353   124960350.109       -2863.934          46.000    23997301.831   101540509.716          48.000                                                    23997308.711    94170684.289          51.000    23997306.727    96627267.786          46.000    23997307.674   126106767.954          47.000
C37  23322174.227   121444722.679        2217.679          49.000    23322170.206    98683768.871          50.000                                                    23322175.442    91521281.800          54.000    23322173.869    93908775.390          48.000    23322173.405   122558888.302          50.000
C39  41255353.882   214827548.675       -1335.995          34.000    41255345.269   174564969.815          37.000                                                    41255350.755   161894961.897          36.000    41255348.879   166118304.416          30.000    41255354.097   216798437.074          35.000
C40  40500260.006   210895556.526        2015.178          36.000    40500252.090   171369897.655          40.000                                                    40500257.772   158931787.257          44.000    40500255.896   163077836.246          38.000    40500259.577   212830343.725          38.000
C44  25394386.031   132235189.372         434.274          39.000    25394380.009   107451896.583          44.000                                                    25394387.050    99652963.325          45.000    25394384.351   102252653.741          39.000    25394383.404   133448353.829          35.000
C60  41468731.066   215938545.635         -27.826          36.000    41468711.839   175467692.286          38.000                                                                                                    41468719.076   166977386.950          39.000
> 2024 05 10 22 00  4.0000000  0 43
G04  24626616.370   129413808.746       -3646.398          34.000    24626623.625   100842188.628          19.000    24626623.660   100842184.647                          41.000    24626625.376    96640432.940          46.000    24626615.083   129414042.771          37.000
G05  22262525.476   116990410.348        2615.515          45.000    22262531.069    91161418.413          44.000    22262531.158    91161407.421                          47.000
G07  21113863.295   110954118.843         761.710          51.000    21113867.155    86457600.320          54.000    21113867.530    86457597.331                          52.000
G09  21443013.968   112683880.272       -2537.089          48.000    21443019.668    87805750.849          51.000    21443020.044    87805741.837                          49.000    21443017.971    84147163.585          54.000
G11  23675730.644   124416954.527       -3070.777          40.000    23675736.147    96948266.066          27.000    23675736.862    96948259.108                          44.000    23675739.114    92908807.755          49.000    23675728.535   124417073.542          41.000
G13  24290585.212   127647886.520        3786.459          31.000
G16  23052948.341   121144001.382       -1741.931          41.000    23052953.291    94398060.085          30.000
G18  25678399.195   134941027.601        3149.057          31.000    25678405.610   105148760.081          16.000    25678406.432   105148870.155                          38.000    25678408.415   100767564.374          41.000    25678396.943   134940879.611          32.000
G20  21003556.923   110374489.390         475.133          49.000    21003560.264    86005895.575          42.000
G26  25663416.752   134862181.065       -3457.267          30.000    25663424.882   105087440.053          22.000    25663424.953   105087506.037                          37.000    25663422.077   100708900.086          43.000
G27  24995811.398   131353856.372        2846.842          34.000    24995818.314   102353696.289          27.000    24995819.136   102353727.318                          38.000    24995815.669    98088951.846          41.000
G29  25284689.707   132871913.147       -2481.317          31.000    25284698.177   103536623.638          22.000    25284697.873   103536385.675                          33.000
G30  22168801.075   116497845.139        2750.471          47.000    22168808.044    90777655.002          48.000    22168808.866    90777645.992                          47.000    22168806.132    86995246.774          54.000
R03  20914705.851   111958148.129       -3182.777          49.000    20914705.154   111958137.140          48.000    20914709.407    87078604.355          50.000    20914708.871    87078602.346          48.000
R04  19122667.390   102401118.321         366.290          54.000    19122666.746   102401143.335          52.000    19122669.570    79645387.015          54.000    19122669.248    79645381.015          52.000
R05  21596666.945   115446618.536        3597.319          47.000    21596666.534   115446604.545          45.000    21596670.572    89791992.765          47.000    21596670.858    89791902.763          45.000
R12  22786103.038   121719268.932       -3914.054          43.000    22786101.930   121719343.937          42.000    22786107.058    94670662.147          44.000    22786108.237    94670639.146          42.000
R13  20081057.140   107231780.700       -1015.640          42.000    20081056.033   107231785.704          40.000    20081059.714    83402503.680          44.000    20081059.696    83402502.675          45.000
R14  21141523.453   112696301.251        3606.120          49.000    21141522.309   112696241.251          47.000    21141528.331    87652691.496          49.000    21141527.866    87652692.501          48.000
R20  21787474.248   116507417.835       -2223.358          37.000    21787473.694   116507410.860          35.000    21787479.913    90616905.046          39.000    21787479.287    90616895.061          38.000
R21  22283006.075   119240853.340        1899.463          44.000    22283004.734   119240823.351          42.000    22283009.863    92742915.382          42.000    22283010.309    92742915.408          41.000
E04  24505811.125   128779021.871       -1831.497          49.000    24505805.996   104528444.254          56.000    24505809.927    98674887.219          53.000    24505811.911    97420560.767          56.000    24505811.607    96166218.726          53.000
E05  25484071.140   133919733.852        2791.991          42.000    25484065.172   108701075.124          45.000    25484072.212   102613845.130          45.000    25484073.838   101309439.951          49.000    25484073.463   100005024.171          44.000
E09  23629582.105   124174374.742         813.075          51.000    23629577.030   100790896.664          59.000    23629581.748    95146639.323          56.000    23629583.767    93937160.963          59.000    23629583.695    92727669.026          55.000
E15  27887235.994   146548406.407        2490.448          39.000    27887233.492   118951617.590          44.000    27887240.122   112290360.855          43.000    27887243.016   110862948.453          48.000    27887243.302   109435528.476          45.000
E21  26516296.748   139344157.031       -1460.196          44.000    26516294.532   113104057.158          50.000    26516298.553   106770253.454          47.000    26516300.768   105413020.317          51.000    26516300.697   104055766.566          47.000
E31  27306032.316   143494122.047        3208.624          40.000    27306028.850   116472544.363          47.000    27306036.569   109950076.204          45.000    27306039.178   108552413.968          49.000    27306039.214   107154744.143          45.000
E34  25628058.011   134676449.536          15.072          46.000    25628055.277   109315324.036          51.000    25628060.638   103193695.169          51.000    25628062.479   101881922.856          54.000    25628062.193   100570141.965          49.000
E36  26272678.655   138063932.949       -2642.049          43.000    26272675.063   112064875.934          49.000    26272681.246   105789296.937          47.000    26272683.426   104444528.443          51.000    26272683.497   103099749.355          48.000
C05  40610381.701   211469136.743         -63.678          34.000    40610375.501   171835768.680          38.000    40610377.645   163521165.515          39.000
C06  39641742.672   206425064.370       -1215.041          36.000    39641731.522   167737204.822          39.000    39641736.186   159620963.716          41.000
C12  26136478.585   136099380.214        1813.039          34.000    26136468.543   110591976.622          41.000    26136474.708   105240776.772          44.000
C16  40675607.638   211808741.194       -1228.372          34.000    40675600.991   172111903.501          36.000    40675608.138   163783959.359          39.000
C19  24328796.563   126686559.884        2775.394          45.000    24328786.181   102943196.835          48.000                                                    24328794.686    95471566.891          50.000    24328792.846    97962122.880          45.000    24328796.080   127848969.994          46.000
C20  21862612.221   113844478.120         158.776          54.000    21862599.320    92507940.081          53.000                                                    21862606.932    85793703.635          56.000    21862605.270    88031779.995          52.000    21862611.185   114888906.041          54.000
C23  23176705.906   120687280.825       -1020.242          50.000    23176690.110    98068293.996          51.000                                                    23176697.097    90950443.964          54.000    23176695.131    93323081.766          49.000    23176705.209   121794503.021          50.000
C25  26122809.265   136028404.952       -3199.700          38.000    26122800.920   110534171.523          40.000                                                    26122805.888   102511584.267          41.000    26122804.816   105185792.730          39.000    26122807.103   137276344.430          37.000
C32  23997857.361   124963214.221       -2864.198          46.000    23997851.858   101542837.042          48.000                                                    23997858.755    94172842.706          50.000    23997856.736    96629482.505          46.000    23997857.772   126109658.338          47.000
C37  23321748.462   121442505.291        2217.200          49.000    23321744.423    98681967.064          51.000                                                    23321749.641    91519610.780          54.000    23321748.015    93907060.772          48.000    23321747.604   122556650.577          50.000
C39  41255610.463   214828884.907       -1336.251          35.000    41255601.958   174566055.525          38.000                                                    41255607.461   161895968.854          37.000    41255605.532   166119337.572          30.000    41255610.714   216799785.570          36.000
C40  40499872.837   210893541.467        2015.069          37.000    40499865.064   171368260.243          40.000                                                    40499870.729   158930268.691          44.000    40499868.924   163076278.058          38.000    40499872.694   212828310.193          38.000
C44  25394302.261   132234755.533         433.604          39.000    25394296.650   107451544.053          44.000                                                    25394303.744    99652636.359          46.000    25394300.957   102252318.260          39.000    25394300.063   133447915.992          35.000
C60  41468736.552   215938573.538         -27.928          36.000    41468717.164   175467714.952          39.000                                                                                                    41468724.419   166977408.517          40.000
> 2024 05 10 22 00  5.0000000  0 43
G04  24627310.313   129417455.223       -3646.378          34.000    24627317.515   100845030.012          20.000    24627317.604   100845026.017                          41.000    24627319.212    96643155.909          45.000    24627308.830   129417689.222          37.000
G05  22262027.877   116987795.203        2615.055          45.000    22262033.292    91159380.637          44.000    22262033.560    91159369.660                          46.000
G07  21113718.359   110953357.448         761.252          51.000    21113722.219    86457007.013          54.000    21113722.684    86457004.022                          52.000
G09  21443496.950   112686417.681       -2537.472          48.000    21443502.632    87807728.025          51.000    21443502.865    87807719.030                          49.000    21443500.774    84149058.388          54.000
G11  23676314.997   124420025.545       -3070.993          40.000    23676320.393    96950659.080          28.000    23676321.269    96950652.092                          44.000    23676323.538    92911101.048          49.000    23676313.138   124420144.539          42.000
G13  24289864.679   127644100.198        3786.356          31.000
G16  23053279.990   121145743.793       -1742.542          42.000    23053284.850    94399417.833          30.000
G18  25677799.975   134937878.982        3148.622          31.000    25677806.551   105146306.616          16.000    25677807.391   105146416.656                          38.000    25677809.267   100765213.100          41.000    25677797.920   134937730.986          33.000
G20  21003466.720   110374014.707         474.497          49.000    21003469.936    86005525.686          42.000
G26  25664074.367   134865638.713       -3457.440          29.000    25664082.855   105090134.341          22.000    25664082.730   105090200.315                          37.000    25664080.139   100711482.079          43.000
G27  24995269.663   131351009.896        2846.392          33.000    24995276.668   102351478.276          27.000    24995277.365   102351509.293                          37.000    24995273.934    98086826.217          41.000
G29  25285162.093   132874395.156       -2482.258          31.000    25285170.348   103538557.662          22.000    25285170.384   103538319.663                          33.000
G30  22168277.798   116495094.998        2750.076          47.000    22168284.892    90775512.023          48.000    22168285.535    90775503.023                          48.000    22168282.784    86993193.083          54.000
R03  20915300.746   111961331.159       -3183.110          49.000    20915300.175   111961320.171          48.000    20915303.516    87081080.045          49.000    20915303.480    87081078.046          48.000
R04  19122599.148   102400752.540         365.594          53.000    19122598.540   102400777.553          52.000    19122600.952    79645102.519          54.000    19122601.095    79645096.525          52.000
R05  21595993.872   115443021.434        3597.050          47.000    21595993.640   115443007.432          44.000    21595997.946    89789195.013          47.000    21595997.893    89789105.027          45.000
R12  22786836.114   121723183.246       -3914.415          42.000    22786835.185   121723258.266          42.000    22786840.010    94673706.611          43.000    22786840.921    94673683.622          41.000
R13  20081247.731   107232796.991       -1016.571          41.000    20081246.248   107232801.985          40.000    20081250.144    83403294.107          44.000    20081249.911    83403293.119          46.000
R14  21140846.985   112692695.510        3605.624          49.000    21140845.859   112692635.504          47.000    21140851.988    87649887.032          49.000    21140851.327    87649888.030          47.000
R20  21787890.043   116509641.752       -2224.053          36.000    21787889.096   116509634.771          35.000    21787895.957    90618634.742          39.000    21787895.082    90618624.744          38.000
R21  22282651.321   119238954.428        1898.701          44.000    22282650.052   119238924.445          43.000    22282655.091    92741438.467          43.000    22282655.377    92741438.479          42.000
E04  24506159.606   128780853.524       -1831.636          49.000    24506154.549   104529930.979          56.000    24506158.534    98676290.689          53.000    24506160.482    97421946.399          56.000    24506160.107    96167586.511          53.000
E05  25483540.037   133916941.939        2791.923          42.000    25483533.890   108698808.949          45.000    25483540.948   102611705.871          45.000    25483542.574   101307327.874          49.000    25483542.252   100002939.291          44.000
E09  23629427.270   124173561.902         812.802          51.000    23629422.338   100790236.887          59.000    23629426.966    95146016.491          56.000    23629429.075    93936546.057          59.000    23629429.003    92727062.025          55.000
E15  27886761.822   146545916.090        2490.160          38.000    27886759.731   118949596.210          44.000    27886766.289   112288452.648          43.000    27886769.112   110861064.516          47.000    27886769.452   109433668.798          45.000
E21  26516574.647   139345617.494       -1460.528          43.000    26516572.860   113105242.620          50.000    26516576.452   106771372.519          47.000    26516578.667   105414125.137          50.000    26516578.542   104056857.169          47.000
E31  27305421.607   143490913.623        3208.480          40.000    27305418.480   116469940.116          47.000    27305425.931   109947617.784          45.000    27305428.629   108549986.804          49.000    27305428.754   107152348.231          46.000
E34  25628055.152   134676434.820          14.614          46.000    25628052.240   109315312.091          51.000    25628057.922   103193683.895          50.000    25628059.691   101881911.734          54.000    25628059.405   100570130.974          49.000
E36  26273181.382   138066575.168       -2642.254          43.000    26273177.665   112067020.580          49.000    26273184.062   105791321.488          46.000    26273186.224   104446527.265          51.000    26273186.403   103101722.442          47.000
C05  40610394.263   211469200.423         -63.654          34.000    40610387.670   171835820.437          38.000    40610389.778   163521214.768          39.000
C06  39641975.863   206426279.350       -1214.905          36.000    39641964.838   167738192.098          39.000    39641969.341   159621903.223          41.000
C12  26136130.443   136097567.477        1812.809          36.000    26136120.472   110590503.611          41.000    26136126.226   105239375.029          44.000
C16  40675843.545   211809969.593       -1228.339          34.000    40675836.915   172112901.684          36.000    40675844.313   163784909.247          40.000
C19  24328263.816   126683784.742        2775.135          45.000    24328253.219   102940941.807          48.000                                                    24328261.725    95469475.537          51.000    24328259.884    97959976.964          45.000    24328263.351   127846169.368          45.000
C20  21862581.701   113844319.702         158.329          54.000    21862568.853    92507811.360          53.000                                                    21862576.501    85793584.248          57.000    21862574.875    88031657.501          52.000    21862580.843   114888746.176          54.000
C23  23176901.965   120688301.429       -1020.747          50.000    23176886.169    98069123.330          52.000                                                    23176893.013    90951213.089          54.000    23176891.118    93323870.976          49.000    23176901.179   121795532.989          50.000
C25  26123423.906   136031604.771       -3199.912          37.000    26123415.365   110536771.617          40.000                                                    26123420.386   102513995.656          41.000    26123419.242   105188267.002          39.000    26123421.619   137279573.602          37.000
C32  23998407.441   124966078.646       -2864.410          46.000    23998401.955   101545164.627          48.000                                                    23998408.835    94175001.349          51.000    23998406.798    96631697.456          46.000    23998407.763   126112549.046          47.000
C37  23321322.661   121440288.377        2216.839          49.000    23321318.640    98680165.642          50.000                                                    23321323.876    91517940.098          53.000    23321322.285    93905346.513          48.000    23321321.785   122554413.313          49.000
C39  41255867.152   214830221.168       -1336.287          34.000    41255858.664   174567141.299          37.000                                                    41255864.239   161896975.797          36.000    41255862.220   166120370.800          30.000    41255867.402   216801134.075          36.000
C40  40499485.723   210891526.567        2014.849          36.000    40499478.111   171366622.967          40.000                                                    40499483.811   158928750.260          45.000    40499481.970   163074720.008          38.000    40499485.741   212826276.770          38.000
C44  25394219.259   132234322.275         433.080          39.000    25394213.398   107451191.977          44.000                                                    25394220.582    99652309.817          45.000    25394217.723   102251983.219          39.000    25394217.079   133447478.748          35.000
C60  41468741.948   215938601.461         -27.906          35.000    41468722.525   175467737.637          39.000                                                                                                    41468729.762   166977430.109          40.000
> 2024 05 10 22 00  6.0000000  0 43
G04  24628004.257   129421101.798       -3646.496          34.000    24628011.494   100847871.487          20.000    24628011.583   100847867.513                          40.000    24628013.174    96645879.013          45.000    24628002.702   129421335.808          37.000
G05  22261530.493   116985180.571        2614.463          46.000    22261535.639    91157343.262          45.000    22261535.997    91157332.271                          47.000
G07  21113573.817   110952596.604         760.633          50.000    21113577.409    86456414.134          54.000    21113577.909    86456411.145                          52.000
G09  21443979.753   112688955.556       -2538.041          48.000    21443985.525    87809705.581          51.000    21443985.757    87809696.584                          49.000    21443983.738    84150953.546          54.000
G11  23676899.314   124423096.929       -3071.429          39.000    23676904.835    96953052.376          28.000    23676905.514    96953045.395                          44.000    23676907.944    92913394.623          49.000    23676897.688   124423215.936          41.000
G13  24289143.825   127640313.976        3786.043          32.000
G16  23053611.728   121147486.852       -1743.364          42.000    23053616.392    94400776.077          30.000
G18  25677200.755   134934730.677        3148.199          32.000    25677207.563   105143853.401          16.000    25677208.385   105143963.431                          38.000    25677210.261   100762862.101          42.000    25677198.843   134934582.719          32.000
G20  21003376.589   110373540.718         473.739          49.000    21003379.680    86005156.341          42.000
G26  25664732.787   134869096.568       -3457.648          28.000    25664740.989   105092828.779          23.000    25664740.668   105092894.798                          37.000    25664738.112   100714064.286          43.000
G27  24994727.964   131348163.871        2845.818          34.000    24994735.236   102349260.589          27.000    24994735.755   102349291.580                          37.000    24994732.234    98084700.928          41.000
G29  25285634.478   132876877.515       -2482.558          32.000    25285642.609   103540491.981          21.000    25285642.859   103540253.941                          33.000
G30  22167754.361   116492345.264        2749.509          47.000    22167761.508    90773369.371          49.000    22167762.223    90773360.364                          48.000    22167759.543    86991139.706          54.000
R03  20915895.552   111964514.671       -3183.733          49.000    20915894.856   111964503.677          48.000    20915898.233    87083556.091          49.000    20915898.269    87083554.090          48.000
R04  19122531.228   102400387.491         364.752          53.000    19122530.370   102400412.495          52.000    19122532.621    79644818.587          54.000    19122532.907    79644812.594          52.000
R05  21595320.996   115439424.637        3596.650          47.000    21595320.782   115439410.646          45.000    21595324.910    89786397.499          47.000    21595325.213    89786307.497          46.000
R12  22787568.601   121727097.945       -3914.765          43.000    22787567.797   121727172.942          42.000    22787572.836    94676751.338          43.000    22787573.605    94676728.330          42.000
R13  20081438.072   107233814.196       -1017.545          41.000    20081436.875   107233819.200          39.000    20081440.520    83404085.276          44.000    20081440.342    83404084.285          46.000
R14  21140170.732   112689090.319        3604.966          49.000    21140169.231   112689030.313          47.000    21140175.539    87647083.014          49.000    21140175.020    87647084.011          47.000
R20  21788305.676   116511866.529       -2225.136          36.000    21788305.479   116511859.559          35.000    21788312.020    90620365.136          38.000    21788311.108    90620355.144          38.000
R21  22282296.513   119237056.428        1897.656          45.000    22282295.245   119237026.436          44.000    22282299.891    92739962.273          43.000    22282300.981    92739962.263          42.000
E04  24506508.303   128782685.541       -1832.160          50.000    24506503.121   104531418.003          56.000    24506507.213    98677694.438          53.000    24506509.089    97423332.301          57.000    24506508.767    96168954.571          53.000
E05  25483008.683   133914150.151        2791.739          42.000    25483002.447   108696542.880          45.000    25483009.738   102609566.694          46.000    25483011.328   101305215.894          49.000    25483010.953   100000854.504          44.000
E09  23629272.757   124172749.421         812.336          52.000    23629267.753   100789577.403          59.000    23629272.453    95145393.941          56.000    23629274.472    93935931.421          59.000    23629274.418    92726455.306          55.000
E15  27886288.132   146543426.120        2489.772          38.000    27886285.684   118947575.132          44.000    27886292.474   112286544.735          43.000    27886295.279   110859180.862          48.000    27886295.494   109431809.409          45.000
E21  26516852.814   139347078.512       -1461.194          43.000    26516850.705   113106428.497          50.000    26516854.422   106772491.978          47.000    26516856.692   105415230.378          51.000    26516856.549   104057948.180          47.000
E31  27304811.130   143487705.341        3208.130          41.000    27304808.056   116467335.996          47.000    27304815.382   109945159.489          44.000    27304818.134   108547559.772          49.000    27304818.206   107149952.447          46.000
E34  25628052.454   134676420.693          13.913          47.000    25628049.399   109315300.627          52.000    25628055.188   103193673.074          51.000    25628056.993   101881901.041          54.000    25628056.707   100570120.433          50.000
E36  26273684.270   138069217.765       -2642.757          43.000    26273680.482   112069165.540          49.000    26273687.057   105793346.350          46.000    26273689.077   104448526.383          51.000    26273689.220   103103695.819          47.000
C05  40610406.361   211469264.054         -63.844          34.000    40610399.874   171835872.135          38.000    40610401.983   163521263.969          40.000
C06  39642209.125   206427494.423       -1215.299          36.000    39642198.225   167739179.459          39.000    39642202.817   159622842.815          41.000
C12  26135782.426   136095755.220        1812.089          35.000    26135772.509   110589030.987          41.000    26135778.137   105237973.661          44.000
C16  40676079.559   211811197.982       -1228.422          33.000    40676072.840   172113899.864          35.000    40676080.131   163785859.135          40.000
C19  24327730.890   126681009.846        2774.765          45.000    24327720.294   102938686.989          47.000                                                    24327728.853    95467384.380          50.000    24327727.012    97957831.254          45.000    24327730.425   127843369.033          45.000
C20  21862551.520   113844161.798         157.690          54.000    21862538.511    92507683.046          53.000                                                    21862546.195    85793465.254          56.000    21862544.551    88031535.402          52.000    21862550.412   114888586.823          54.000
C23  23177098.042   120689322.583       -1021.371          50.000    23177082.192    98069953.101          52.000                                                    23177089.161    90951982.642          54.000    23177087.213    93324660.606          49.000    23177097.130   121796563.508          50.000
C25  26124038.064   136034804.756       -3200.118          38.000    26124029.934   110539371.851          40.000                                                    26124034.812   102516407.170          41.000    26124033.651   105190741.422          39.000    26124036.152   137282802.934          38.000
C32  23998957.575   124968943.359       -2864.830          46.000    23998952.071   101547492.438          48.000                                                    23998958.951    94177160.198          51.000    23998956.896    96633912.632          46.000    23998957.861   126115440.029          47.000
C37  23320897.038   121438071.928        2216.258          49.000    23320893.000    98678364.596          50.000                                                    23320898.200    91516269.788          53.000    23320896.645    93903632.619          48.000    23320896.270   122552176.547          49.000
C39  41256123.751   214831557.463       -1336.394          35.000    41256115.353   174568227.115          38.000                                                    41256120.999   161897982.767          37.000    41256118.891   166121404.068          30.000    41256124.198   216802482.639          36.000
C40  40499098.912   210889511.781        2014.590          36.000    40499091.211   171364985.795          40.000                                                    40499096.875   158927231.891          44.000    40499095.035   163073162.057          38.000    40499098.769   212824243.488          38.000
C44  25394136.240   132233889.610         432.441          40.000    25394130.433   107450840.380          43.000                                                    25394137.401    99651983.737          45.000    25394134.596   102251648.630          39.000    25394133.988   133447042.102          35.000
C60  41468747.220   215938629.399         -28.005          35.000    41468727.957   175467760.337          39.000                                                                                                    41468735.140   166977451.706          40.000
> 2024 05 10 22 00  7.0000000  0 43
G04  24628698.522   129424748.534       -3646.845          34.000    24628705.366   100850713.074          18.000    24628705.688   100850709.084                          41.000    24628707.189    96648602.173          45.000    24628696.592   129424982.524          37.000
G05  22261033.198   116982566.388        2614.069          46.000    22261038.309    91155306.244          45.000    22261038.738    91155295.250                          47.000
G07  21113429.096   110951836.289         760.166          50.000    21113432.598    86455821.673          54.000    21113433.331    86455818.683                          52.000
G09  21444462.699   112691493.825       -2538.354          48.000    21444468.453    87811683.464          52.000    21444468.793    87811674.476                          49.000    21444466.791    84152849.024          54.000
G11  23677483.863   124426168.686       -3071.861          40.000    23677489.510    96955445.967          28.000    23677490.189    96955438.954                          44.000    23677492.440    92915688.458          48.000    23677482.112   124426287.678          41.000
G13  24288423.310   127636527.883        3786.106          31.000
G16  23053943.556   121149230.634       -1743.959          42.000    23053948.184    94402134.856          29.000
G18  25676601.517   134931582.715        3147.914          32.000    25676608.647   105141400.457          16.000    25676609.076   105141510.485                          39.000    25676611.131   100760511.344          42.000    25676599.641   134931434.708          33.000
G20  21003286.511   110373067.391         473.153          49.000    21003289.602    86004787.515          42.000
G26  25665390.993   134872554.721       -3458.165          27.000    25665398.837   105095523.449          22.000    25665398.730   105095589.447                          37.000    25665396.068   100716646.672          44.000
G27  24994186.425   131345318.146        2845.686          34.000    24994193.519   102347043.141          27.000    24994194.377   102347074.143                          37.000    24994190.767    98082575.851          40.000
G29  25286106.757   132879360.375       -2483.128          31.000    25286115.048   103542426.641          22.000    25286115.280   103542188.614                          33.000
G30  22167231.263   116489595.894        2749.250          47.000    22167238.339    90771226.998          48.000    22167239.197    90771218.009                          47.000    22167236.391    86989086.619          53.000
R03  20916490.573   111967698.622       -3184.120          49.000    20916489.680   111967687.628          48.000    20916493.468    87086032.486          50.000    20916493.003    87086030.492          48.000
R04  19122463.057   102400023.105         364.122          53.000    19122462.307   102400048.113          52.000    19122464.612    79644535.174          54.000    19122464.951    79644529.181          52.000
R05  21594648.192   115435828.070        3596.491          47.000    21594647.960   115435814.055          44.000    21594652.087    89783600.153          46.000    21594652.212    89783510.146          45.000
R12  22788301.392   121731012.982       -3915.251          43.000    22788300.731   121731088.008          41.000    22788305.466    94679796.308          44.000    22788306.592    94679773.314          42.000
R13  20081628.753   107234832.332       -1018.453          42.000    20081627.609   107234837.339          40.000    20081631.040    83404877.159          44.000    20081631.093    83404876.148          46.000
R14  21139494.479   112685485.646        3604.504          48.000    21139493.156   112685425.640          46.000    21139499.411    87644279.367          49.000    21139498.767    87644280.372          48.000
R20  21788721.917   116514092.118       -2225.812          36.000    21788721.756   116514085.113          35.000    21788727.957    90622096.135          39.000    21788727.367    90622086.140          38.000
R21  22281942.028   119235159.219        1897.011          44.000    22281940.706   119235129.242          43.000    22281945.941    92738486.645          42.000    22281946.334    92738486.657          42.000
E04  24506856.909   128784517.764       -1832.294          50.000    24506851.834   104532905.207          56.000    24506855.766    98679098.360          54.000    24506857.749    97424718.379          57.000    24506857.392    96170322.805          53.000
E05  25482477.330   133911358.449        2791.706          42.000    25482471.380   108694276.879          45.000    25482478.456   102607427.598          46.000    25482480.100   101303103.985          49.000    25482479.796    99998769.781          44.000
E09  23629118.207   124171937.254         812.096          52.000    23629113.240   100788918.183          59.000    23629117.921    95144771.624          56.000    23629119.923    93935317.015          59.000    23629119.833    92725848.809          56.000
E15  27885814.495   146540936.463        2489.573          38.000    27885812.137   118945554.312          44.000    27885818.766   112284637.083          44.000    27885821.500   110857297.462          48.000    27885821.804   109429950.245          45.000
E21  26517130.838   139348539.914       -1461.521          43.000    26517128.819   113107614.705          50.000    26517132.553   106773611.751          47.000    26517134.787   105416335.906          51.000    26517134.537   104059039.479          47.000
E31  27304200.652   143484497.129        3208.316          40.000    27304197.454   116464731.930          47.000    27304204.869   109942701.262          44.000    27304207.621   108545132.770          49.000    27304207.675   107147556.693          45.000
E34  25628049.935   134676407.077          13.516          47.000    25628046.915   109315289.573          52.000    25628052.669   103193662.638          51.000    25628054.402   101881890.748          54.000    25628054.277   100570110.259          50.000
E36  26274187.444   138071860.655       -2642.907          43.000    26274183.459   112071310.751          49.000    26274189.838   105795371.440          47.000    26274192.018   104450525.724          51.000    26274192.107   103105669.412          48.000
C05  40610418.440   211469327.655         -63.425          34.000    40610412.025   171835923.807          39.000    40610414.187   163521313.148          39.000
C06  39642442.655   206428709.465       -1214.971          36.000    39642431.505   167740166.801          39.000    39642436.222   159623782.387          41.000
C12  26135434.373   136093943.527        1811.625          35.000    26135424.617   110587558.838          41.000    26135430.406   105236572.745          44.000
C16  40676315.555   211812426.317       -1228.167          33.000    40676308.729   172114897.968          36.000    40676315.877   163786808.935          39.000
C19  24327197.964   126678235.181        2774.638          45.000    24327187.439   102936432.355          48.000                                                    24327195.999    95465293.395          50.000    24327194.122    97955685.723          45.000    24327197.428   127840568.903          45.000
C20  21862521.178   113844004.360         157.274          54.000    21862508.313    92507555.114          54.000                                                    21862515.996    85793346.603          56.000    21862514.299    88031413.661          52.000    21862520.231   114888427.943          54.000
C23  23177294.172   120690344.238       -1021.775          49.000    23177278.465    98070783.279          51.000                                                    23177285.327    90952752.550          54.000    23177283.415    93325450.612          49.000    23177293.565   121797594.533          50.000
C25  26124653.080   136038004.893       -3200.081          38.000    26124644.592   110541972.207          40.000                                                    26124649.417   102518818.790          40.000    26124648.220   105193215.953          38.000    26124650.864   137286032.438          37.000
C32  23999507.780   124971808.314       -2864.985          46.000    23999502.276   101549820.449          48.000                                                    23999509.174    94179319.251          51.000    23999507.083    96636127.999          46.000    23999508.155   126118331.280          47.000
C37  23320471.577   121435855.910        2215.927          49.000    23320467.485    98676563.909          50.000                                                    23320472.596    91514599.785          54.000    23320471.077    93901919.057          48.000    23320470.541   122549940.180          49.000
C39  41256380.440   214832893.776       -1336.122          35.000    41256372.041   174569312.949          38.000                                                    41256377.706   161898989.735          36.000    41256375.579   166122437.349          30.000    41256380.833   216803831.203          36.000
C40  40498711.780   210887497.006        2014.860          36.000    40498704.257   171363348.630          40.000                                                    40498710.047   158925713.588          45.000    40498708.117   163071604.107          38.000    40498711.905   212822210.285          38.000
C44  25394053.185   132233457.495         431.958          39.000    25394047.485   107450489.234          43.000                                                    25394054.436    99651658.085          44.000    25394051.666   102251314.471          38.000    25394050.951   133446606.051          34.000
C60  41468752.723   215938657.299         -27.873          35.000    41468733.389   175467782.998          40.000                                                                                                    41468740.501   166977473.269          40.000
> 2024 05 10 22 00  8.0000000  0 43
G04  24629392.269   129428395.261       -3646.815          35.000    24629399.309   100853554.661          19.000    24629399.131   100853550.674                          40.000    24629401.168    96651325.384          45.000    24629390.661   129428629.266          37.000
G05  22260535.725   116979952.637        2613.579          46.000    22260540.871    91153269.545          45.000    22260541.300    91153258.558                          47.000
G07  21113284.428   110951076.404         759.663          50.000    21113288.038    86455229.549          54.000    21113288.735    86455226.560                          52.000
G09  21444945.931   112694032.402       -2538.740          48.000    21444951.631    87813661.576          51.000    21444951.899    87813652.592                          49.000    21444949.862    84154744.723          54.000
G11  23678068.502   124429240.684       -3072.076          40.000    23678074.202    96957839.724          28.000    23678074.774    96957832.732                          44.000    23678077.025    92917982.500          49.000    23678066.608   124429359.696          42.000
G13  24287702.724   127632741.793        3786.105          31.000
G16  23054275.527   121150974.993       -1744.635          42.000    23054280.083    94403494.113          28.000
G18  25676002.691   134928434.997        3147.665          31.000    25676009.660   105138947.649          17.000    25676010.410   105139057.711                          39.000    25676012.197   100758160.771          42.000    25676000.779   134928287.001          33.000
G20  21003196.397   110372594.657         472.463          50.000    21003199.525    86004419.142          42.000
G26  25666049.252   134876013.042       -3458.598          27.000    25666056.775   105098218.247          22.000    25666056.775   105098284.251                          38.000    25666054.184   100719229.210          43.000
G27  24993645.101   131342472.831        2845.207          34.000    24993652.302   102344826.001          27.000    24993652.963   102344857.028                          37.000    24993649.139    98080451.156          40.000
G29  25286579.446   132881843.570       -2483.456          32.000    25286587.523   103544361.598          22.000    25286587.719   103544123.610                          33.000
G30  22166708.076   116486846.847        2748.849          47.000    22166715.277    90769084.876          48.000    22166715.849    90769075.888                          48.000    22166713.276    86987033.754          54.000
R03  20917085.433   111970882.935       -3184.523          49.000    20917084.575   111970871.941          48.000    20917088.024    87088509.198          50.000    20917087.774    87088507.189          48.000
R04  19122395.173   102399659.315         363.513          54.000    19122394.369   102399684.338          52.000    19122396.799    79644252.240          54.000    19122396.924    79644246.242          52.000
R05  21593975.370   115432231.715        3596.225          47.000    21593975.334   115432217.721          45.000    21593979.640    89780802.962          46.000    21593979.622    89780712.969          45.000
R12  22789034.629   121734928.382       -3915.645          43.000    22789033.611   121735003.384          42.000    22789038.400    94682841.573          44.000    22789039.633    94682818.563          42.000
R13  20081819.558   107235851.285       -1019.357          42.000    20081818.254   107235856.265          40.000    20081821.684    83405669.650          45.000    20081821.738    83405668.667          46.000
R14  21138818.368   112681881.443        3603.988          48.000    21138817.118   112681821.443          46.000    21138823.497    87641476.103          48.000    21138822.764    87641477.117          47.000
R20  21789138.247   116516318.391       -2226.637          36.000    21789138.051   116516311.397          35.000    21789144.269    90623827.667          39.000    21789144.126    90623817.685          37.000
R21  22281587.453   119233262.809        1896.029          44.000    22281586.363   119233232.823          43.000    22281591.420    92737011.666          42.000    22281591.992    92737011.657          41.000
E04  24507205.570   128786350.177       -1832.517          50.000    24507200.548   104534392.558          56.000    24507204.480    98680502.411          53.000    24507206.445    97426104.586          57.000    24507206.159    96171691.159          53.000
E05  25481946.156   133908566.759        2791.671          42.000    25481940.009   108692010.889          45.000    25481947.246   102605288.497          45.000    25481948.872   101300992.071          49.000    25481948.353    99996685.068          44.000
E09  23628963.658   124171125.330         811.745          51.000    23628958.798   100788259.145          59.000    23628963.390    95144149.496          56.000    23628965.427    93934702.793          60.000    23628965.391    92725242.504          56.000
E15  27885341.020   146538447.051        2489.235          37.000    27885338.518   118943533.684          44.000    27885344.987   112282729.640          42.000    27885347.739   110855414.264          47.000    27885347.989   109428091.308          44.000
E21  26517408.987   139350001.695       -1461.966          43.000    26517407.022   113108801.201          50.000    26517410.721   106774731.785          47.000    26517412.954   105417441.710          51.000    26517412.829   104060131.042          47.000
E31  27303590.300   143481288.961        3208.043          40.000    27303586.994   116462127.900          47.000    27303594.481   109940243.060          44.000    27303597.144   108542705.822          49.000    27303597.162   107145161.008          45.000
E34  25628047.361   134676393.928          12.983          47.000    25628044.467   109315278.892          52.000    25628050.024   103193652.556          50.000    25628051.882   101881880.785          54.000    25628051.614   100570100.436          49.000
E36  26274690.010   138074503.795       -2643.316          43.000    26274686.490   112073456.166          49.000    26274692.780   105797396.674          47.000    26274694.978   104452525.233          51.000    26274695.085   103107643.184          47.000
C05  40610430.448   211469391.216         -63.509          33.000    40610424.194   171835975.465          38.000    40610426.463   163521362.302          40.000
C06  39642675.900   206429924.480       -1215.016          36.000    39642664.821   167741154.124          39.000    39642669.538   159624721.941          41.000
C12  26135086.553   136092132.198        1811.040          35.000    26135076.743   110586086.991          41.000    26135082.604   105235172.117          44.000
C16  40676551.372   211813654.618       -1228.334          34.000    40676544.689   172115896.037          37.000    40676551.819   163787758.702          40.000
C19  24326665.021   126675460.667        2774.383          45.000    24326654.585   102934177.835          47.000                                                    24326663.180    95463202.499          50.000    24326661.322    97953540.297          44.000    24326664.663   127837768.929          45.000
C20  21862490.926   113843847.331         156.831          54.000    21862478.186    92507427.511          54.000                                                    21862485.834    85793228.255          56.000    21862484.136    88031292.232          52.000    21862490.069   114888269.474          54.000
C23  23177490.588   120691366.351       -1022.337          50.000    23177474.703    98071613.821          52.000                                                    23177481.654    90953522.819          54.000    23177479.688    93326240.961          49.000    23177489.713   121798626.030          50.000
C25  26125267.364   136041205.186       -3200.414          38.000    26125259.180   110544572.689          40.000                                                    26125263.969   102521230.523          41.000    26125262.753   105195690.602          38.000    26125265.541   137289262.101          38.000
C32  24000057.949   124974673.469       -2865.308          46.000    24000052.499   101552148.622          48.000                                                    24000059.343    94181478.431          51.000    24000057.306    96638343.514          46.000    24000058.271   126121222.715          47.000
C37  23320045.865   121433640.260        2215.417          49.000    23320041.952    98674763.515          50.000                                                    23320047.116    91512930.073          54.000    23320045.544    93900205.783          48.000    23320045.097   122547704.210          49.000
C39  41256637.200   214834229.912       -1336.171          34.000    41256628.730   174570398.621          37.000                                                    41256634.394   161899996.628          37.000    41256632.268   166123470.480          30.000    41256637.539   216805179.579          35.000
C40  40498324.951   210885482.284        2014.732          36.000    40498317.321   171361711.492          40.000                                                    40498323.093   158924195.283          44.000    40498321.199   163070046.180          38.000    40498324.773   212820177.090          38.000
C44  25393969.987   132233025.915         431.396          39.000    25393964.537   107450138.519          43.000                                                    25393971.505    99651332.829          44.000    25393968.825   102250980.719          38.000    25393968.110   133446170.529          35.000
C60  41468758.102   215938685.103         -27.651          35.000    41468738.696   175467805.580          39.000                                                                                                    41468745.826   166977494.749          40.000
> 2024 05 10 22 00  9.0000000  0 42
G04  24630086.320   129432042.199       -3647.094          34.000    24630093.378   100856396.404          20.000    24630093.271   100856392.455                          40.000    24630095.183    96654048.732          46.000    24630084.712   129432276.163          38.000
G05  22260038.394   116977339.452        2612.977          46.000    22260043.612    91151233.297          45.000    22260044.148    91151222.303                          47.000
G07  21113139.957   110950317.107         759.070          50.000    21113143.620    86454637.891          54.000    21113144.156    86454634.893                          52.000
G09  21445429.020   112696571.436       -2539.163          48.000    21445434.685    87815640.051          51.000    21445435.096    87815631.060                          49.000    21445432.987    84156640.742          54.000
G11  23678652.747   124432313.136       -3072.641          40.000    23678658.858    96960233.836          27.000    23678659.448    96960226.844                          44.000    23678661.628    92920276.858          48.000    23678651.264   124432432.134          41.000
G16  23054607.623   121152720.107       -1745.389          42.000    23054612.233    94404853.923          28.000
G18  25675403.757   134925287.678        3147.160          31.000    25675410.618   105136495.217          16.000    25675411.691   105136605.241                          39.000    25675413.388   100755810.493          41.000    25675401.970   134925139.702          33.000
G20  21003106.498   110372122.663         471.699          50.000    21003109.661    86004051.350          42.000
G26  25666707.261   134879471.586       -3458.584          28.000    25666714.927   105100913.257          22.000    25666714.819   105100979.285                          38.000    25666712.264   100721811.944          44.000
G27  24993103.544   131339627.928        2844.780          34.000    24993110.960   102342609.207          27.000    24993111.425   102342640.234                          37.000    24993107.690    98078326.708          40.000
G29                                                                                                                  25287060.534   103546058.976       -1935.815          33.000
G30  22166185.193   116484098.258        2748.425          47.000    22166192.179    90766943.125          48.000    22166192.948    90766934.139                          48.000    22166190.214    86984981.230          54.000
R03  20917679.828   111974067.781       -3185.020          49.000    20917679.435   111974056.801          48.000    20917683.313    87090986.306          50.000    20917682.741    87090984.297          48.000
R04  19122327.217   102399296.288         362.777          54.000    19122326.574   102399321.310          52.000    19122329.129    79643969.883          54.000    19122328.968    79643963.878          52.000
R05  21593302.762   115428635.745        3595.800          47.000    21593302.279   115428621.742          45.000    21593306.836    89778006.092          46.000    21593306.764    89777916.078          45.000
R12  22789767.724   121738844.307       -3916.148          43.000    22789766.670   121738919.315          41.000    22789771.012    94685887.283          43.000    22789772.656    94685864.269          41.000
R13  20082010.506   107236871.183       -1020.275          41.000    20082009.166   107236876.193          39.000    20082012.740    83406462.902          44.000    20082012.615    83406461.905          45.000
R14  21138142.312   112678277.901        3603.299          49.000    21138141.043   112678217.901          46.000    21138147.315    87638673.355          48.000    21138146.726    87638674.353          47.000
R20  21789554.810   116518545.595       -2227.410          36.000    21789554.596   116518538.616          35.000    21789560.635    90625559.939          39.000    21789560.510    90625549.957          38.000
R21  22281233.164   119231367.316        1895.169          44.000    22281232.342   119231337.321          43.000    22281237.363    92735537.396          43.000    22281237.917    92735537.396          42.000
E04  24507554.427   128788182.916       -1832.811          50.000    24507549.298   104535880.166          56.000    24507553.319    98681906.719          54.000    24507555.195    97427491.037          57.000    24507554.838    96173059.763          54.000
E05  25481414.892   133905775.277        2791.397          42.000    25481408.780   108689745.069          45.000    25481416.125   102603149.553          46.000    25481417.679   101298880.335          49.000    25481417.215    99994600.511          45.000
E09  23628809.270   124170313.823         811.356          51.000    23628804.266   100787600.454          59.000    23628808.912    95143527.690          56.000    23628811.003    93934088.891          59.000    23628810.949    92724636.502          56.000
E15  27884867.008   146535958.066        2488.811          38.000    27884864.703   118941513.431          44.000    27884871.100   112280822.507          42.000    27884874.049   110853531.388          47.000    27884874.388   109426232.674          44.000
E21  26517687.065   139351463.946       -1462.404          43.000    26517685.242   113109988.081          50.000    26517689.120   106775852.204          47.000    26517691.228   105418547.888          50.000    26517691.050   104061222.975          47.000
E31  27302979.662   143478080.972        3207.920          40.000    27302976.660   116459524.013          47.000    27302984.022   109937785.009          45.000    27302986.684   108540279.011          49.000    27302986.792   107142765.443          45.000
E34  25628045.110   134676381.401          12.334          47.000    25628042.090   109315268.727          52.000    25628047.737   103193642.962          51.000    25628049.506   101881871.315          54.000    25628049.309   100570091.085          49.000
E36  26275193.202   138077147.305       -2643.667          43.000    26275189.431   112075601.877          49.000    26275195.846   105799422.241          47.000    26275198.008   104454525.042          51.000    26275198.116   103109617.250          48.000
C05  40610442.903   211469454.894         -63.913          33.000    40610436.363   171836027.215          38.000    40610438.811   163521411.546          39.000
C06  39642909.394   206431139.513       -1215.139          35.000    39642898.119   167742141.452          38.000    39642902.961   159625661.493          41.000
C12  26134739.018   136090321.403        1810.702          35.000    26134729.011   110584615.554          41.000    26134734.926   105233771.885          44.000
C16  40676787.208   211814882.986       -1228.378          34.000    40676780.596   172116894.177          36.000    40676787.601   163788708.542          40.000
C19  24326132.166   126672686.469        2774.113          45.000    24326121.856   102931923.568          47.000                                                    24326130.433    95461111.859          50.000    24326128.503    97951395.103          44.000    24326132.023   127834969.295          46.000
C20  21862460.960   113843690.876         156.254          54.000    21862448.112    92507300.369          54.000                                                    21862455.796    85793110.336          57.000    21862454.098    88031171.232          52.000    21862460.049   114888111.581          54.000
C23  23177686.826   120692389.090       -1022.965          50.000    23177671.101    98072444.871          51.000                                                    23177678.088    90954293.546          54.000    23177676.105    93327031.794          49.000    23177686.111   121799658.146          50.000
C25  26125882.004   136044405.718       -3200.669          39.000    26125873.785   110547173.374          41.000                                                    26125878.591   102523642.422          42.000    26125877.376   105198165.443          39.000    26125880.110   137292491.992          38.000
C32  24000608.137   124977538.953       -2865.624          45.000    24000602.758   101554477.058          48.000                                                    24000609.673    94183637.871          51.000    24000607.600    96640559.282          46.000    24000608.530   126124114.485          47.000
C37  23319620.404   121431425.111        2214.954          49.000    23319616.526    98672963.534          50.000                                                    23319621.762    91511260.743          53.000    23319620.136    93898492.901          48.000    23319619.725   122545468.744          50.000
C39  41256893.942   214835566.199       -1336.279          34.000    41256885.365   174571484.421          36.000                                                    41256891.083   161901003.634          37.000    41256888.992   166124503.732          30.000    41256894.138   216806528.187          36.000
C40  40497937.998   210883467.823        2014.315          36.000    40497930.510   171360074.582          40.000                                                    40497936.318   158922677.142          44.000    40497934.352   163068488.478          38.000    40497937.998   212818144.099          38.000
C44  25393887.557   132232595.015         430.624          39.000    25393881.785   107449788.368          43.000                                                    25393888.772    99651008.070          44.000    25393886.056   102250647.509          38.000    25393885.305   133445735.629          34.000
C60  41468763.212   215938713.006         -27.890          35.000    41468744.021   175467828.241          39.000                                                                                                    41468751.204   166977516.311          40.000
> 2024 05 10 22 00 10.0000000  0 42
G04  24630780.156   129435689.161       -3647.012          35.000    24630787.304   100859238.218          19.000    24630787.304   100859234.257                          40.000    24630789.144    96656772.128          45.000    24630778.762   129435923.157          37.000
G05  22259541.367   116974726.742        2612.529          45.000    22259546.495    91149197.417          44.000    22259547.014    91149186.412                          47.000
G07  21112995.557   110949558.317         758.598          50.000    21112999.256    86454046.613          54.000    21112999.846    86454043.617                          52.000
G09  21445912.413   112699110.846       -2539.578          48.000    21445917.863    87817618.808          51.000    21445918.506    87817609.803                          49.000    21445916.237    84158537.050          54.000
G11  23679237.958   124435385.938       -3072.940          40.000    23679243.586    96962628.236          28.000    23679243.980    96962621.224                          45.000    23679246.392    92922571.467          49.000    23679236.153   124435504.927          42.000
G16  23054939.718   121154465.913       -1746.075          42.000    23054944.489    94406214.303          28.000
G18  25674805.127   134922140.743        3146.609          32.000    25674811.953   105134043.051          16.000    25674812.739   105134153.049                          39.000    25674814.508   100753460.464          42.000    25674803.215   134921992.709          34.000
G20  21003016.992   110371651.323         471.080          50.000    21003020.209    86003684.074          42.000
G26  25667365.287   134882930.461       -3458.808          27.000    25667373.060   105103608.471          23.000    25667373.060   105103674.466                          38.000    25667370.452   100724394.835          44.000
G27  24992562.059   131336783.435        2844.367          34.000    24992569.547   102340392.728          26.000    24992570.422   102340423.750                          37.000    24992566.437    98076202.543          39.000
G29                                                                                                                  25287532.865   103547994.617       -1935.822          33.000
G30  22165662.077   116481350.041        2748.066          47.000    22165669.207    90764801.667          48.000    22165669.993    90764792.665                          48.000    22165667.241    86982928.992          53.000
R03  20918274.777   111977253.074       -3185.499          49.000    20918274.384   111977242.080          48.000    20918278.244    87093463.752          50.000    20918277.815    87093461.750          48.000
R04  19122259.583   102398933.948         362.080          54.000    19122258.904   102398958.967          52.000    19122261.673    79643688.054          54.000    19122261.334    79643682.053          52.000
R05  21592630.225   115425040.070        3595.573          47.000    21592629.600   115425026.082          45.000    21592633.835    89775209.451          46.000    21592634.299    89775119.449          45.000
R12  22790500.783   121742760.713       -3916.611          42.000    22790499.907   121742835.706          41.000    22790504.785    94688933.400          43.000    22790505.840    94688910.399          41.000
R13  20082201.508   107237891.994       -1021.151          41.000    20082199.989   107237896.997          39.000    20082203.778    83407256.880          45.000    20082204.010    83407255.876          45.000
R14  21137466.452   112674674.907        3602.803          49.000    21137465.022   112674614.907          47.000    21137471.151    87635871.036          49.000    21137470.883    87635872.041          48.000
R20  21789971.069   116520773.620       -2228.317          36.000    21789971.140   116520766.648          35.000    21789976.805    90627292.862          39.000    21789977.091    90627282.878          38.000
R21  22280879.125   119229472.579        1894.372          44.000    22280878.160   119229442.599          43.000    22280883.199    92734063.712          42.000    22280883.735    92734063.716          42.000
E04  24507903.212   128790015.890       -1833.040          50.000    24507898.155   104537367.960          56.000    24507902.068    98683311.177          54.000    24507904.016    97428877.650          57.000    24507903.623    96174428.522          54.000
E05  25480883.592   133902983.862        2791.307          42.000    25480877.481   108687479.293          45.000    25480884.932   102601010.675          45.000    25480886.505   101296768.628          49.000    25480885.969    99992515.993          44.000
E09  23628654.917   124169502.674         811.018          51.000    23628649.932   100786942.054          59.000    23628654.578    95142906.169          56.000    23628656.633    93933475.273          60.000    23628656.561    92724030.783          56.000
E15  27884393.515   146533469.322        2488.671          38.000    27884391.138   118939493.361          44.000    27884397.589   112278915.534          43.000    27884400.412   110851648.643          47.000    27884400.698   109424374.173          45.000
E21  26517965.554   139352926.648       -1462.950          43.000    26517963.838   113111175.313          50.000    26517967.412   106776972.942          47.000    26517969.592   105419654.375          51.000    26517969.449   104062315.209          47.000
E31  27302368.988   143474873.130        3207.812          40.000    27302366.111   116456920.247          47.000    27302373.455   109935327.050          44.000    27302376.243   108537852.299          49.000    27302376.457   107140369.956          46.000
E34  25628042.626   134676369.408          11.789          47.000    25628040.017   109315258.992          52.000    25628045.378   103193633.763          51.000    25628047.236   101881862.235          54.000    25628047.058   100570082.118          50.000
E36  26275696.501   138079791.114       -2643.957          43.000    26275692.551   112077747.833          49.000    26275698.913   105801448.041          47.000    26275701.111   104456525.084          52.000    26275701.200   103111591.530          48.000
C05  40610454.821   211469518.513         -63.564          34.000    40610448.657   171836078.908          39.000    40610451.283   163521460.735          40.000
C06  39643142.531   206432354.592       -1215.076          36.000    39643131.488   167743128.799          39.000    39643136.063   159626601.071          41.000
C12  26134391.358   136088511.159        1809.751          34.000    26134381.352   110583144.577          40.000    26134387.105   105232372.066          43.000
C16  40677023.204   211816111.345       -1228.648          34.000    40677016.485   172117892.280          36.000    40677023.579   163789658.336          40.000
C19  24325599.866   126669912.502        2773.910          45.000    24325589.073   102929669.487          47.000                                                    24325597.686    95459021.383          50.000    24325595.720    97949250.090          45.000    24325599.258   127832169.863          45.000
C20  21862431.136   113843534.914         155.729          54.000    21862418.181    92507173.626          54.000                                                    21862425.847    85792992.803          57.000    21862424.168    88031050.629          52.000    21862430.082   114887954.191          54.000
C23  23177883.492   120693412.317       -1023.462          50.000    23177867.643    98073276.322          51.000                                                    23177874.612    90955064.639          54.000    23177872.610    93327823.012          49.000    23177882.599   121800690.772          50.000
C25  26126496.949   136047606.349       -3200.747          37.000    26126488.408   110549774.120          40.000                                                    26126493.250   102526054.442          39.000    26126492.035   105200640.340          38.000    26126494.608   137295721.998          37.000
C32  24001158.342   124980404.708       -2865.832          45.000    24001153.088   101556805.716          48.000                                                    24001159.968    94185797.511          51.000    24001158.002    96642775.267          46.000    24001158.967   126127006.542          47.000
C37  23319195.103   121429210.398        2214.545          49.000    23319191.226    98671163.905          50.000                                                    23319196.408    91509591.724          53.000    23319194.835    93896780.353          48.000    23319194.389   122543233.718          50.000
C39  41257150.648   214836902.448       -1336.133          34.000    41257142.035   174572570.200          37.000                                                    41257147.789   161902010.584          36.000    41257145.645   166125536.957          29.000    41257150.755   216807876.675          35.000
C40  40497551.223   210881453.354        2014.311          36.000    40497543.664   171358437.663          41.000                                                    40497549.471   158921159.049          44.000    40497547.506   163066930.768          38.000    40497551.419   212816111.157          38.000
C44  25393804.930   132232164.639         430.200          39.000    25393799.141   107449438.628          43.000                                                    25393806.092    99650683.737          44.000    25393803.429   102250314.688          38.000    25393802.750   133445301.352          35.000
C60  41468768.716   215938740.904         -27.904          35.000    41468749.435   175467850.898          40.000                                                                                                    41468756.565   166977537.865          40.000
> 2024 05 10 22 00 11.0000000  0 42
G04  24631474.600   129439336.211       -3647.272          35.000    24631481.104   100862080.091          19.000    24631481.354   100862076.087                          41.000    24631483.088    96659495.563          45.000    24631472.670   129439570.198          38.000
G05  22259044.304   116972114.467        2612.057          46.000    22259049.326    91147161.866          45.000    22259049.880    91147150.882                          47.000
G07  21112851.212   110948800.012         758.038          51.000    21112855.053    86453455.716          54.000    21112855.536    86453452.734                          52.000
G09  21446395.466   112701650.629       -2539.945          48.000    21446401.095    87819597.850          51.000    21446401.613    87819588.855                          49.000    21446399.576    84160433.635          54.000
G11  23679822.990   124438459.080       -3073.371          40.000    23679828.672    96965022.886          27.000    23679828.725    96965015.880                          45.000    23679831.138    92924866.348          49.000    23679820.935   124438578.075          42.000
G16  23055272.189   121156212.347       -1746.700          42.000    23055276.853    94407575.138          29.000
G18  25674206.103   134918994.043        3146.533          32.000    25674213.144   105131591.086          16.000    25674214.002   105131701.087                          40.000    25674215.717   100751110.649          41.000    25674204.781   134918846.035          33.000
G20  21002927.487   110371180.649         470.375          50.000    21002930.381    86003317.311          42.000
G26  25668023.332   134886389.533       -3459.348          25.000    25668031.320   105106303.863          23.000    25668031.248   105106369.847                          38.000    25668028.639   100726977.904          44.000
G27  24992020.664   131333939.300        2843.798          34.000    24992028.312   102338176.528          27.000    24992029.277   102338207.502                          37.000    24992025.238    98074078.683          40.000
G29                                                                                                                  25288005.805   103549930.601       -1935.763          32.000
G30  22165139.229   116478602.162        2747.649          47.000    22165146.305    90762660.465          48.000    22165147.020    90762651.472                          48.000    22165144.376    86980877.018          53.000
R03  20918869.851   111980438.762       -3185.930          49.000    20918869.494   111980427.768          48.000    20918873.157    87095941.523          50.000    20918872.710    87095939.515          48.000
R04  19122191.984   102398572.293         361.342          54.000    19122191.323   102398597.306          52.000    19122193.878    79643406.771          54.000    19122193.878    79643400.771          51.000
R05  21591957.600   115421444.673        3595.293          47.000    21591957.063   115421430.667          45.000    21591961.441    89772413.015          47.000    21591961.674    89772323.013          45.000
R12  22791233.913   121746677.428       -3916.854          42.000    22791233.198   121746752.442          41.000    22791237.272    94691979.753          43.000    22791238.988    94691956.754          42.000
R13  20082392.814   107238913.699       -1022.173          42.000    20082391.474   107238918.694          39.000    20082395.262    83408051.535          44.000    20082395.334    83408050.538          45.000
R14  21136790.770   112671072.427        3602.229          50.000    21136789.520   112671012.428          47.000    21136795.309    87633069.110          49.000    21136794.862    87633070.124          48.000
R20  21790387.918   116523002.428       -2229.213          36.000    21790388.400   116522995.417          35.000    21790393.457    90629026.310          38.000    21790393.707    90629016.330          37.000
R21  22280525.372   119227578.717        1893.506          44.000    22280524.228   119227548.734          43.000    22280529.767    92732590.692          42.000    22280530.018    92732590.706          41.000
E04  24508252.015   128791849.108       -1833.333          50.000    24508247.048   104538855.947          56.000    24508250.890    98684715.841          53.000    24508252.891    97430264.442          56.000    24508252.569    96175797.466          54.000
E05  25480352.900   133900192.503        2791.257          42.000    25480346.217   108685213.582          45.000    25480353.758   102598871.839          45.000    25480355.366   101294656.986          48.000    25480354.955    99990431.550          45.000
E09  23628500.636   124168691.804         810.713          51.000    23628495.597   100786283.885          59.000    23628500.243    95142284.851          56.000    23628502.334    93932861.857          60.000    23628502.262    92723425.265          56.000
E15  27883919.896   146530980.840        2488.378          38.000    27883917.609   118937473.465          44.000    27883924.131   112277008.759          43.000    27883926.865   110849766.115          47.000    27883927.276   109422515.879          45.000
E21  26518243.971   139354389.743       -1463.311          43.000    26518242.256   113112362.854          50.000    26518245.829   106778093.986          47.000    26518248.045   105420761.166          51.000    26518247.866   104063407.752          47.000
E31  27301758.779   143471665.361        3207.716          40.000    27301755.491   116454316.544          47.000    27301763.103   109932869.149          44.000    27301765.837   108535425.645          49.000    27301765.926   107137974.555          46.000
E34  25628040.571   134676357.925          11.278          47.000    25628037.534   109315249.669          52.000    25628043.287   103193624.974          51.000    25628045.056   101881853.556          54.000    25628044.931   100570073.557          50.000
E36  26276199.621   138082435.213       -2644.202          43.000    26276195.779   112079894.020          49.000    26276202.158   105803474.039          47.000    26276204.285   104458525.323          51.000    26276204.445   103113566.026          47.000
C05  40610467.115   211469582.143         -63.705          33.000    40610460.879   171836130.618          39.000    40610463.363   163521509.950          39.000
C06  39643375.972   206433569.654       -1215.195          36.000    39643364.858   167744116.143          38.000    39643369.396   159627540.639          41.000
C12  26134043.806   136086701.379        1809.557          34.000    26134033.906   110581674.006          40.000    26134039.571   105230972.665          43.000
C16  40677258.736   211817339.695       -1228.505          33.000    40677252.428   172118890.401          35.000    40677259.540   163790608.160          40.000
C19  24325066.762   126667138.773        2773.624          45.000    24325056.451   102927415.603          47.000                                                    24325065.028    95456931.093          50.000    24325063.116    97947105.274          44.000    24325066.565   127829370.681          45.000
C20  21862401.242   113843379.442         155.218          54.000    21862388.322    92507047.301          53.000                                                    21862395.988    85792875.654          57.000    21862394.362    88030930.412          52.000    21862400.330   114887797.298          54.000
C23  23178079.927   120694436.080       -1024.034          50.000    23178064.256    98074108.194          51.000                                                    23178071.171    90955836.133          54.000    23178069.187    93328614.623          49.000    23178079.355   121801723.924          50.000
C25  26127111.483   136050807.227       -3200.851          39.000    26127103.138   110552375.081          41.000                                                    26127107.998   102528466.602          41.000    26127106.801   105203115.444          38.000    26127109.445   137298952.248          38.000
C32  24001709.011   124983270.721       -2866.137          46.000    24001703.561   101559134.581          48.000                                                    24001710.405    94187957.351          51.000    24001708.350    96644991.448          46.000    24001709.387   126129898.849          47.000
C37  23318769.821   121426996.095        2214.052          49.000    23318765.943    98669364.605          51.000                                                    23318771.161    91507923.018          54.000    23318769.606    93895068.116          48.000    23318769.267   122540999.095          50.000
C39  41257407.194   214838238.728       -1336.254          35.000    41257398.652   174573656.002          37.000                                                    41257404.442   161903017.580          37.000    41257402.315   166126570.214          30.000    41257407.229   216809225.195          36.000
C40  40497164.412   210879438.987        2014.319          37.000    40497156.800   171356800.822          40.000                                                    40497162.625   158919641.005          44.000    40497160.624   163065373.124          38.000    40497164.465   212814078.321          38.000
C44  25393722.304   132231734.873         429.494          39.000    25393716.604   107449089.408          43.000                                                    25393723.555    99650359.844          45.000    25393720.982   102249982.354          38.000    25393720.017   133444867.596          35.000
C60  41468773.862   215938768.801         -27.858          35.000    41468754.814   175467873.560          40.000                                                                                                    41468761.890   166977559.430          40.000
> 2024 05 10 22 00 12.0000000  0 42
G04  24632168.454   129442983.290       -3647.286          35.000    24632174.923   100864921.973          19.000    24632175.369   100864917.997                          41.000    24632177.174    96662219.036          45.000    24632166.739   129443217.277          38.000
G05  22258547.349   116969502.676        2611.539          46.000    22258552.477    91145126.693          45.000    22258552.745    91145115.695                          47.000
G07  21112706.973   110948042.243         757.533          50.000    21112710.743    86452865.233          54.000    21112711.404    86452862.259                          52.000
G09  21446878.948   112704190.811       -2540.443          49.000    21446884.738    87821577.206          51.000    21446884.917    87821568.194                          49.000    21446883.005    84162330.517          54.000
G11  23680407.718   124441532.560       -3073.759          40.000    23680413.632    96967417.803          27.000    23680413.668    96967410.829                          44.000    23680415.973    92927161.508          49.000    23680405.949   124441651.561          41.000
G16  23055604.589   121157959.441       -1747.465          42.000    23055609.306    94408936.517          29.000
G18  25673607.420   134915847.631        3146.162          32.000    25673614.442   105129139.311          17.000    25673615.121   105129249.323                          40.000    25673616.962   100748761.070          41.000    25673605.901   134915699.649          33.000
G20  21002837.963   110370710.606         469.734          49.000    21002841.000    86002951.039          42.000
G26                                                                                                                  25668689.311   105109065.395       -2695.632          38.000    25668686.863   100729561.148          44.000
G27  24991480.197   131331095.485        2843.606          34.000    24991487.220   102335960.569          27.000    24991487.988   102335991.588                          37.000    24991483.932    98071955.085          40.000
G29                                                                                                                  25288478.387   103551866.946       -1936.208          34.000
G30  22164616.435   116475854.659        2747.238          47.000    22164623.440    90760519.551          48.000    22164624.190    90760510.567                          48.000    22164621.528    86978825.306          53.000
R03  20919465.301   111983624.836       -3186.276          49.000    20919464.765   111983613.847          48.000    20919468.428    87098419.569          50.000    20919467.892    87098417.567          48.000
R04  19122124.564   102398211.305         360.662          54.000    19122123.850   102398236.318          52.000    19122126.316    79643126.005          54.000    19122126.369    79643120.007          52.000
R05  21591285.027   115417849.550        3594.949          47.000    21591284.706   115417835.554          45.000    21591289.030    89769616.802          47.000    21591289.227    89769526.807          45.000
R12  22791967.204   121750594.463       -3917.241          42.000    22791966.418   121750669.474          41.000    22791970.992    94695026.326          43.000    22791972.315    94695003.307          41.000
R13  20082584.209   107239936.236       -1022.947          41.000    20082582.887   107239941.225          39.000    20082586.711    83408846.825          44.000    20082586.675    83408845.817          45.000
R14  21136114.928   112667470.460        3601.707          49.000    21136113.838   112667410.454          47.000    21136119.789    87630267.591          49.000    21136119.235    87630268.582          48.000
R20  21790805.034   116525231.995       -2229.936          37.000    21790805.374   116525225.019          35.000    21790811.807    90630760.401          39.000    21790810.877    90630750.432          38.000
R21  22280171.797   119225685.683        1892.676          44.000    22280170.654   119225655.718          43.000    22280175.532    92731118.330          43.000    22280176.050    92731118.348          41.000
E04  24508600.854   128793682.563       -1833.595          50.000    24508595.958   104540344.126          56.000    24508599.818    98686120.671          53.000    24508601.802    97431651.421          57.000    24508601.408    96177166.580          54.000
E05  25479821.475   133897401.253        2791.175          42.000    25479815.078   108682947.943          45.000    25479822.637   102596733.078          45.000    25479824.209   101292545.412          48.000    25479823.691    99988347.146          45.000
E09  23628346.373   124167881.250         810.359          52.000    23628341.405   100785625.970          59.000    23628346.087    95141663.777          56.000    23628348.088    93932248.677          59.000    23628348.088    92722819.984          56.000
E15  27883446.492   146528492.641        2488.001          39.000    27883443.991   118935453.802          44.000    27883450.674   112275102.188          43.000    27883453.390   110847883.794          47.000    27883453.765   109420657.794          44.000
E21  26518522.495   139355853.282       -1463.797          43.000    26518520.762   113113550.763          50.000    26518524.533   106779215.363          47.000    26518526.570   105421868.288          50.000    26518526.337   104064500.612          47.000
E31  27301148.337   143468457.660        3207.572          40.000    27301145.460   116451712.895          47.000    27301152.804   109930411.320          43.000    27301155.449   108532999.069          48.000    27301155.556   107135579.227          45.000
E34  25628038.570   134676346.965          10.719          46.000    25628035.639   109315240.775          52.000    25628041.197   103193616.567          51.000    25628042.966   101881845.262          53.000    25628042.823   100570065.366          49.000
E36  26276702.759   138085079.609       -2644.582          43.000    26276698.953   112082040.442          49.000    26276705.350   105805500.251          46.000    26276707.476   104460525.778          51.000    26276707.566   103115540.716          47.000
C05  40610479.374   211469645.719         -63.576          34.000    40610473.084   171836182.281          38.000    40610475.210   163521559.113          40.000
C06  39643609.235   206434784.681       -1215.058          36.000    39643598.174   167745103.435          38.000    39643602.962   159628480.156          41.000
C12  26133696.432   136084891.995        1809.148          34.000    26133686.479   110580203.757          40.000    26133692.161   105229573.573          43.000
C16  40677494.857   211818568.107       -1228.431          34.000    40677488.335   172119888.578          36.000    40677495.286   163791558.030          40.000
C19  24324534.300   126664365.233        2773.390          46.000    24324523.829   102925161.881          47.000                                                    24324532.424    95454840.942          50.000    24324530.423    97944960.594          45.000    24324533.907   127826571.707          46.000
C20  21862371.418   113843224.443         154.763          54.000    21862358.570    92506921.359          53.000                                                    21862366.165    85792758.850          57.000    21862364.592    88030810.564          52.000    21862370.525   114887640.863          54.000
C23  23178276.754   120695460.360       -1024.546          50.000    23178260.958    98074940.496          52.000                                                    23178267.945    90956608.022          54.000    23178265.890    93329406.650          49.000    23178275.968   121802757.601          50.000
C25  26127726.088   136054008.294       -3201.231          38.000    26127717.904   110554976.198          41.000                                                    26127722.764   102530878.922          41.000    26127721.513   105205590.694          38.000    26127724.158   137302182.633          37.000
C32  24002259.252   124986136.975       -2866.391          46.000    24002253.945   101561463.650          48.000                                                    24002260.789    94190117.375          51.000    24002258.752    96647207.820          46.000    24002259.681   126132791.379          47.000
C37  23318344.770   121424782.214        2213.637          48.000    23318340.839    98667565.645          50.000                                                    23318346.057    91506254.634          54.000    23318344.466    93893356.200          48.000    23318343.948   122538764.897          50.000
C39  41257663.936   214839574.850       -1336.195          34.000    41257655.305   174574741.691          37.000                                                    41257661.041   161904024.434          37.000    41257658.968   166127603.345          30.000    41257663.882   216810573.615          35.000
C40  40496777.547   210877424.657        2014.227          36.000    40496769.882   171355164.003          40.000                                                    40496775.868   158918122.958          44.000    40496773.759   163063815.503          38.000    40496777.762   212812045.508          38.000
C44  25393639.839   132231305.663         428.883          38.000    25393634.228   107448740.626          43.000                                                    25393641.036    99650036.387          44.000    25393638.623   102249650.453          38.000    25393637.712   133444434.454          35.000
C60  41468779.241   215938796.631         -27.929          34.000    41468760.157   175467896.167          40.000                                                                                                    41468767.251   166977580.942          40.000
> 2024 05 10 22 00 13.0000000  0 43
G04  24632862.523   129446630.478       -3647.162          35.000    24632868.920   100867763.958          20.000    24632869.492   100867759.963                          41.000    24632871.296    96664942.607          46.000    24632860.718   129446864.506          37.000
G05  22258050.322   116966891.427        2611.027          45.000    22258055.486    91143091.947          44.000    22258055.772    91143080.965                          46.000
G07  21112562.895   110947285.032         757.097          50.000    21112566.647    86452275.208          54.000    21112567.201    86452272.220                          53.000
G09  21447362.341   112706731.406       -2540.748          48.000    21447368.131    87823556.884          51.000    21447368.292    87823547.881                          49.000    21447366.415    84164227.706          54.000
G11  23680992.463   124444606.459       -3074.100          40.000    23680998.467    96969813.067          26.000    23680998.700    96969806.068                          44.000    23681000.880    92929456.947          48.000    23680990.891   124444725.448          42.000
G13  24284100.901   127613813.058        3785.325          31.000
G16  23055937.024   121159707.254       -1748.066          42.000    23055941.777    94410298.445          29.000
G18  25673009.075   134912701.608        3145.943          32.000    25673015.901   105126687.826          18.000    25673016.563   105126797.893                          41.000    25673018.421   100746411.755          42.000    25673007.449   134912553.651          34.000
G20  21002748.528   110370241.280         469.056          50.000    21002751.745    86002585.330          42.000
G26                                                                                                                  25669347.748   105111761.133       -2696.040          38.000    25669345.211   100732144.559          44.000
G27  24990939.552   131328252.127        2843.186          34.000    24990946.164   102333744.966          26.000    24990946.968   102333775.962                          37.000    24990942.804    98069831.755          40.000
G29  25288943.482   132894266.448       -2485.747          32.000    25288951.505   103554041.678          22.000    25288951.416   103553803.672                          34.000
G30  22164093.481   116473107.578        2746.968          47.000    22164100.664    90758378.973          48.000    22164101.432    90758369.984                          48.000    22164098.734    86976773.919          53.000
R03  20920060.661   111986811.388       -3186.730          49.000    20920059.982   111986800.399          48.000    20920063.806    87100898.001          50.000    20920063.359    87100895.999          48.000
R04  19122057.520   102397851.064         359.969          54.000    19122056.626   102397876.080          52.000    19122059.074    79642845.822          53.000    19122059.164    79642839.820          52.000
R05  21590612.509   115414254.768        3594.691          47.000    21590612.366   115414240.781          45.000    21590616.672    89766820.860          46.000    21590616.619    89766730.851          45.000
R12  22792700.745   121754511.859       -3917.594          41.000    22792699.834   121754586.882          40.000    22792704.927    94698073.120          42.000    22792705.534    94698050.103          41.000
R13  20082775.926   107240959.728       -1023.836          41.000    20082774.675   107240964.746          40.000    20082778.285    83409642.870          44.000    20082778.553    83409641.865          46.000
R14  21135439.104   112663869.073        3601.179          49.000    21135438.389   112663809.076          47.000    21135444.214    87627466.517          49.000    21135443.786    87627467.522          47.000
R20  21791221.829   116527462.427       -2230.664          37.000    21791222.240   116527455.449          35.000    21791228.298    90632495.153          38.000    21791228.030    90632485.155          38.000
R21  22279818.187   119223793.614        1891.824          44.000    22279816.847   119223763.625          43.000    22279821.672    92729646.719          43.000    22279822.637    92729646.714          41.000
E04  24508950.015   128795516.317       -1833.883          49.000    24508944.905   104541832.542          56.000    24508948.800    98687525.722          53.000    24508950.766    97433038.611          57.000    24508950.444    96178535.905          54.000
E05  25479290.211   133894610.143        2791.032          41.000    25479283.903   108680682.418          45.000    25479291.426   102594594.424          45.000    25479293.106   101290433.949          48.000    25479292.641    99986262.876          44.000
E09  23628192.199   124167071.064         810.052          52.000    23628187.285   100784968.347          59.000    23628191.913    95141042.985          56.000    23628193.914    93931635.774          60.000    23628193.879    92722214.964          56.000
E15  27882973.196   146526004.928        2487.634          38.000    27882970.408   118933434.549          44.000    27882977.627   112273196.018          42.000    27882979.986   110846001.844          47.000    27882980.468   109418800.066          43.000
E21  26518801.038   139357317.319       -1464.263          43.000    26518799.465   113114739.076          50.000    26518803.128   106780337.129          47.000    26518805.201   105422975.794          51.000    26518804.987   104065593.865          47.000
E31  27300538.074   143465250.158        3207.528          40.000    27300534.804   116449109.408          47.000    27300542.238   109927953.642          44.000    27300545.061   108530572.625          49.000    27300545.061   107133184.021          45.000
E34  25628036.586   134676336.589          10.209          47.000    25628033.531   109315232.351          52.000    25628039.160   103193608.626          51.000    25628040.964   101881837.417          54.000    25628040.768   100570057.622          50.000
E36  26277206.165   138087724.366       -2644.919          43.000    26277202.252   112084187.163          49.000    26277208.488   105807526.749          47.000    26277210.775   104462526.520          51.000    26277210.811   103117515.707          48.000
C05  40610491.596   211469709.376         -63.831          34.000    40610485.342   171836233.998          38.000    40610487.700   163521608.325          40.000
C06  39643842.461   206435999.821       -1215.053          36.000    39643831.507   167746090.822          39.000    39643836.332   159629419.764          41.000
C12  26133348.629   136083083.213        1808.707          33.000    26133338.926   110578733.985          40.000    26133344.716   105228174.912          42.000
C16  40677730.639   211819796.457       -1228.398          33.000    40677724.152   172120886.697          35.000    40677731.550   163792507.855          39.000
C19  24324001.518   126661592.004        2773.109          46.000    24323991.261   102922908.394          47.000                                                    24323999.802    95452751.016          50.000    24323997.854    97942816.147          45.000    24324001.267   127823773.027          45.000
C20  21862341.809   113843069.956         154.275          54.000    21862328.890    92506795.832          53.000                                                    21862336.502    85792642.433          57.000    21862334.912    88030691.114          52.000    21862340.898   114887484.961          54.000
C23  23178473.563   120696485.233       -1025.094          50.000    23178457.767    98075773.282          51.000                                                    23178464.736    90957380.366          54.000    23178462.699    93330199.140          49.000    23178472.777   121803791.877          50.000
C25  26128340.836   136057209.541       -3201.334          38.000    26128332.652   110557577.462          40.000                                                    26128337.512   102533291.373          40.000    26128336.225   105208066.097          38.000    26128338.924   137305413.305          38.000
C32  24002809.886   124989003.535       -2866.669          46.000    24002804.418   101563792.979          48.000                                                    24002811.298    94192277.630          52.000    24002809.243    96649424.435          46.000    24002810.226   126135684.246          47.000
C37  23317919.577   121422568.809        2213.217          48.000    23317915.717    98665767.077          50.000                                                    23317921.006    91504586.619          53.000    23317919.380    93891644.662          48.000    23317918.916   122536531.195          50.000
C39  41257920.678   214840911.104       -1336.285          34.000    41257911.958   174575827.458          37.000                                                    41257917.730   161905031.373          37.000    41257915.621   166128636.570          30.000    41257920.606   216811922.108          35.000
C40  40496391.040   210875410.432        2014.193          36.000    40496383.214   171353527.244          40.000                                                    40496389.093   158916604.992          44.000    40496387.038   163062257.938          38.000    40496390.737   212810012.795          38.000
C44  25393557.462   132230877.080         428.327          39.000    25393551.923   107448392.365          44.000                                                    25393558.838    99649713.397          45.000    25393556.354   102249319.043          38.000    25393555.264   133444001.957          35.000
C60  41468784.423   215938824.522         -27.994          35.000    41468765.571   175467918.831          40.000                                                                                                    41468772.629   166977602.511          40.000
> 2024 05 10 22 00 14.0000000  0 42
G04  24633556.502   129450277.771       -3647.407          34.000    24633563.167   100870605.971          20.000    24633563.435   100870601.971                          41.000    24633565.293    96667666.181          46.000    24633554.983   129450511.773          38.000
G05  22257553.760   116964280.666        2610.497          45.000    22257558.781    91141057.595          45.000    22257558.906    91141046.603                          47.000
G07  21112418.853   110946528.262         756.499          50.000    21112422.873    86451685.503          54.000    21112423.195    86451682.498                          52.000
G09  21447845.806   112709272.401       -2541.169          48.000    21447851.720    87825536.875          51.000    21447851.845    87825527.879                          49.000    21447849.987    84166125.198          54.000
G11  23681577.174   124447680.661       -3074.393          41.000    23681583.446    96972208.547          27.000    23681583.660    96972201.554                          44.000    23681585.894    92931752.609          49.000    23681575.565   124447799.673          42.000
G16  23056269.906   121161455.778       -1748.775          42.000    23056274.356    94411660.928          29.000
G18  25672410.124   134909555.918        3145.408          32.000    25672417.093   105124236.689          18.000    25672418.075   105124346.701                          41.000    25672419.844   100744062.702          41.000    25672408.783   134909407.910          34.000
G20  21002659.415   110369772.628         468.310          50.000    21002662.614    86002220.153          42.000
G26                                                                                                                  25670006.168   105114457.094       -2696.219          38.000    25670003.702   100734728.200          44.000
G27  24990397.978   131325409.113        2842.712          34.000    24990405.179   102331529.619          26.000    24990405.894   102331560.597                          38.000    24990401.802    98067708.714          39.000
G29  25289416.511   132896752.355       -2486.356          31.000    25289424.266   103555978.746          21.000    25289424.498   103555740.774                          34.000
G30  22163570.847   116470360.875        2746.448          46.000    22163577.959    90756238.690          47.000    22163578.835    90756229.687                          48.000    22163576.029    86974722.808          53.000
R03  20920656.128   111989998.388       -3187.239          49.000    20920655.288   111989987.400          48.000    20920658.844    87103376.772          50.000    20920658.558    87103374.772          48.000
R04  19121990.225   102397491.487         359.271          54.000    19121989.492   102397516.510          52.000    19121991.958    79642566.145          54.000    19121991.958    79642560.149          51.000
R05  21589940.133   115410660.300        3594.307          47.000    21589939.937   115410646.312          46.000    21589944.064    89764025.155          47.000    21589944.154    89763935.160          45.000
R12  22793433.840   121758429.789       -3918.226          42.000    22793433.250   121758504.806          41.000    22793438.254    94701120.389          43.000    22793439.201    94701097.379          41.000
R13  20082967.786   107241984.116       -1024.901          41.000    20082966.553   107241989.117          40.000    20082969.751    83410439.596          44.000    20082970.234    83410438.608          45.000
R14  21134763.566   112660268.225        3600.589          49.000    21134762.708   112660208.225          47.000    21134768.658    87624665.865          48.000    21134768.140    87624666.862          47.000
R20  21791639.124   116529693.695       -2231.646          36.000    21791639.214   116529686.708          35.000    21791645.629    90634230.566          38.000    21791645.218    90634220.591          38.000
R21  22279465.024   119221902.412        1890.751          44.000    22279463.666   119221872.414          43.000    22279468.490    92728175.767          43.000    22279469.205    92728175.779          41.000
E04  24509299.015   128797350.344       -1834.187          49.000    24509293.851   104543321.184          56.000    24509297.764    98688931.000          53.000    24509299.783    97434426.023          57.000    24509299.462    96179905.455          54.000
E05  25478759.251   133891819.143        2790.818          42.000    25478752.997   108678417.002          45.000    25478760.448   102592455.865          46.000    25478762.003   101288322.557          49.000    25478761.646    99984178.670          44.000
E09  23628038.150   124166261.221         809.640          51.000    23628033.147   100784311.004          59.000    23628037.757    95140422.447          56.000    23628039.812    93931023.128          59.000    23628039.812    92721610.208          55.000
E15  27882499.863   146523517.410        2487.362          38.000    27882497.111   118931415.465          43.000    27882504.223   112271289.980          42.000    27882506.600   110844120.046          46.000    27882506.993   109416942.504          43.000
E21  26519079.884   139358781.767       -1464.614          43.000    26519078.043   113115927.740          50.000    26519081.724   106781459.202          47.000    26519083.887   105424083.595          51.000    26519083.654   104066687.405          47.000
E31  27299927.847   143462042.780        3207.316          40.000    27299924.667   116446506.026          47.000    27299931.796   109925496.031          44.000    27299934.691   108528146.258          49.000    27299934.816   107130788.901          46.000
E34  25628034.728   134676326.726           9.637          46.000    25628031.583   109315224.348          52.000    25628037.408   103193601.059          50.000    25628039.106   101881829.945          54.000    25628039.052   100570050.241          49.000
E36  26277709.410   138090369.416       -2645.251          43.000    26277705.640   112086334.119          49.000    26277711.769   105809553.478          47.000    26277714.110   104464527.496          51.000    26277714.217   103119490.916          47.000
C05  40610503.747   211469772.969         -63.670          33.000    40610497.528   171836285.673          38.000    40610499.798   163521657.495          40.000
C06  39644075.973   206437214.991       -1215.444          36.000    39644064.859   167747078.256          39.000    39644069.469   159630359.419          40.000
C12  26133001.559   136081274.872        1808.061          34.000    26132991.660   110577264.582          40.000    26132997.485   105226776.605          42.000
C16  40677966.742   211821024.895       -1228.646          33.000    40677960.095   172121884.894          36.000    40677967.314   163793457.748          39.000
C19  24323469.289   126658819.013        2772.819          46.000    24323458.675   102920655.119          48.000                                                    24323467.270    95450661.288          50.000    24323465.286    97940671.901          44.000    24323468.806   127820974.599          46.000
C20  21862312.272   113842915.952         153.726          54.000    21862299.263    92506670.689          53.000                                                    21862306.965    85792526.368          57.000    21862305.321    88030572.023          52.000    21862311.182   114887329.544          54.000
C23  23178670.444   120697510.638       -1025.687          50.000    23178654.720    98076606.508          51.000                                                    23178661.653    90958153.098          54.000    23178659.616    93330992.044          49.000    23178669.801   121804826.680          50.000
C25  26128955.887   136060411.070       -3201.544          39.000    26128947.453   110560178.983          42.000                                                    26128952.206   102535704.112          42.000    26128951.009   105210541.736          38.000    26128953.689   137308644.197          39.000
C32  24003360.359   124991870.359       -2866.974          46.000    24003354.927   101566122.499          49.000                                                    24003361.860    94194438.072          52.000    24003359.770    96651641.238          46.000    24003360.717   126138577.369          47.000
C37  23317494.651   121420355.844        2212.740          48.000    23317490.756    98663968.871          50.000                                                    23317495.974    91502918.925          53.000    23317494.365    93889933.468          48.000    23317493.847   122534297.924          49.000
C39  41258176.955   214842247.342       -1336.371          34.000    41258168.539   174576913.227          37.000                                                    41258174.418   161906038.315          37.000    41258172.310   166129669.793          30.000    41258177.188   216813270.628          35.000
C40  40496004.105   210873396.344        2014.001          36.000    40495996.403   171351890.609          39.000                                                    40496002.300   158915087.154          44.000    40496000.263   163060700.490          38.000    40496003.926   212807980.249          38.000
C44  25393475.336   132230449.033         427.819          39.000    25393469.672   107448044.546          44.000                                                    25393476.587    99649390.829          45.000    25393474.211   102248988.052          38.000    25393473.085   133443569.974          36.000
C60  41468789.945   215938852.408         -27.957          34.000    41468770.968   175467941.478          38.000                                                                                                    41468777.954   166977624.061          40.000
> 2024 05 10 22 00 15.0000000  0 42
G04  24634250.856   129453925.126       -3647.477          35.000    24634257.236   100873448.054          20.000    24634257.647   100873444.053                          41.000    24634259.362    96670389.851          45.000    24634248.909   129454159.105          38.000
G05  22257056.715   116961670.383        2610.043          45.000    22257061.986    91139023.606          45.000    22257062.344    91139012.621                          47.000
G07  21112275.204   110945772.054         755.990          51.000    21112278.795    86451096.223          54.000    21112279.260    86451093.241                          53.000
G09  21448329.556   112711813.792       -2541.583          48.000    21448335.274    87827517.172          51.000    21448335.560    87827508.168                          49.000    21448333.594    84168022.983          54.000
G11  23682162.348   124450755.229       -3074.716          41.000    23682168.549    96974604.298          27.000    23682168.763    96974597.317                          44.000    23682171.033    92934048.550          49.000    23682160.812   124450874.209          42.000
G16  23056602.806   121163204.947       -1749.498          41.000    23056607.363    94413023.938          29.000
G18  25671811.601   134906410.571        3145.203          32.000    25671818.445   105121785.753          19.000    25671819.517   105121895.754                          40.000    25671821.393   100741713.869          41.000    25671810.261   134906262.551          33.000
G20  21002570.410   110369304.604         467.804          49.000    21002573.573    86001855.457          42.000
G26                                                                                                                  25670664.928   105117153.243       -2696.082          38.000    25670661.979   100737311.998          44.000
G27  24989856.886   131322566.481        2842.586          34.000    24989864.337   102329314.557          26.000    24989865.195   102329345.554                          38.000    24989860.871    98065585.943          40.000
G29  25289889.450   132899238.660       -2486.407          31.000    25289897.330   103557916.104          22.000    25289897.795   103557678.105                          34.000
G30  22163048.411   116467614.578        2746.079          47.000    22163055.219    90754098.729          48.000    22163056.166    90754089.747                          48.000    22163053.432    86972672.026          54.000
R03  20921251.292   111993185.813       -3187.623          49.000    20921250.577   111993174.824          48.000    20921254.669    87105855.873          50.000    20921254.151    87105853.880          48.000
R04  19121923.359   102397132.580         358.627          54.000    19121922.519   102397157.597          52.000    19121924.967    79642286.988          53.000    19121925.057    79642280.990          52.000
R05  21589268.026   115407066.091        3594.109          47.000    21589267.722   115407052.088          45.000    21589271.564    89761229.648          46.000    21589271.742    89761139.653          45.000
R12  22794167.560   121762348.020       -3918.484          42.000    22794166.684   121762423.055          41.000    22794171.848    94704167.884          43.000    22794172.599    94704144.874          41.000
R13  20083159.949   107243009.367       -1025.591          41.000    20083158.466   107243014.362          40.000    20083162.165    83411237.004          45.000    20083162.272    83411236.013          46.000
R14  21134088.152   112656667.919        3600.075          49.000    21134087.080   112656607.928          47.000    21134093.156    87621865.633          49.000    21134092.512    87621866.624          48.000
R20  21792057.099   116531925.770       -2232.509          37.000    21792057.063   116531918.768          35.000    21792063.174    90635966.607          39.000    21792062.602    90635956.635          38.000
R21  22279111.557   119220011.981        1890.085          44.000    22279110.181   119219981.980          43.000    22279114.988    92726705.439          44.000    22279115.827    92726705.427          41.000
E04  24509648.104   128799184.627       -1834.408          49.000    24509642.940   104544810.035          56.000    24509646.889    98690336.496          53.000    24509648.855    97435813.651          57.000    24509648.533    96181275.207          53.000
E05  25478228.273   133889028.206        2790.855          42.000    25478221.876   108676151.615          45.000    25478229.381   102590317.349          46.000    25478230.918   101286211.216          48.000    25478230.453    99982094.516          44.000
E09  23627884.065   124165451.686         809.388          51.000    23627879.062   100783653.918          59.000    23627883.762    95139802.163          56.000    23627885.763    93930410.727          59.000    23627885.727    92721005.692          56.000
E15  27882026.495   146521030.295        2487.088          39.000    27882023.796   118929396.686          44.000    27882031.016   112269384.255          44.000    27882033.321   110842238.529          48.000    27882033.660   109415085.221          44.000
E21  26519358.891   139360246.726       -1465.200          43.000    26519356.818   113117116.797          50.000    26519360.588   106782581.683          48.000    26519362.697   105425191.809          51.000    26519362.518   104067781.342          47.000
E31  27299317.191   143458835.492        3207.152          40.000    27299314.243   116443902.720          47.000    27299321.480   109923038.510          44.000    27299324.339   108525719.977          49.000    27299324.553   107128393.844          45.000
E34  25628032.727   134676317.418           9.072          46.000    25628029.903   109315216.785          52.000    25628035.639   103193593.916          51.000    25628037.355   101881822.890          54.000    25628037.355   100570043.286          49.000
E36  26278212.995   138093014.780       -2645.526          43.000    26278209.100   112088481.330          49.000    26278215.175   105811580.452          47.000    26278217.516   104466528.690          51.000    26278217.641   103121466.346          47.000
C05  40610516.148   211469836.576         -63.684          33.000    40610509.769   171836337.349          37.000    40610512.163   163521706.678          38.000
C06  39644309.128   206438430.096       -1215.049          36.000    39644298.121   167748065.629          39.000    39644302.696   159631299.016          41.000
C12  26132654.293   136079467.021        1807.723          34.000    26132644.536   110575795.535          41.000    26132650.344   105225378.646          43.000
C16  40678202.149   211822253.268       -1228.290          33.000    40678196.055   172122883.055          37.000    40678203.328   163794407.604          40.000
C19  24322936.792   126656046.261        2772.650          46.000    24322926.231   102918402.040          48.000                                                    24322934.719    95448571.747          50.000    24322932.807    97938527.844          44.000    24322936.345   127818176.409          45.000
C20  21862282.627   113842762.445         153.285          54.000    21862269.815    92506545.957          54.000                                                    21862277.463    85792410.686          57.000    21862275.837    88030453.324          52.000    21862281.805   114887174.629          54.000
C23  23178867.361   120698536.564       -1026.158          50.000    23178851.690    98077440.147          51.000                                                    23178858.694    90958926.245          53.000    23178856.639    93331785.348          49.000    23178866.628   121805862.018          50.000
C25  26129570.760   136063612.724       -3201.831          36.000    26129562.273   110562780.635          40.000                                                    26129566.990   102538116.912          40.000    26129565.936   105213017.505          38.000    26129568.473   137311875.201          37.000
C32  24003911.011   124994737.422       -2867.214          46.000    24003905.489   101568452.223          49.000                                                    24003912.405    94196598.707          51.000    24003910.350    96653858.233          46.000    24003911.279   126141470.741          47.000
C37  23317069.869   121418143.303        2212.343          49.000    23317065.813    98662171.010          51.000                                                    23317071.120    91501251.545          53.000    23317069.494    93888222.598          48.000    23317069.101   122532065.079          50.000
C39  41258433.608   214843583.544       -1336.258          34.000    41258425.192   174577998.963          37.000                                                    41258431.089   161907045.243          37.000    41258428.962   166130702.994          30.000    41258434.001   216814619.081          35.000
C40  40495617.240   210871382.313        2013.911          37.000    40495609.646   171350254.037          40.000                                                    40495615.686   158913569.352          44.000    40495613.488   163059143.097          38.000    40495617.294   212805947.762          38.000
C44  25393393.085   132230021.585         427.135          39.000    25393387.617   107447697.203          43.000                                                    25393394.533    99649068.674          44.000    25393392.156   102248657.513          38.000    25393390.798   133443138.602          35.000
C60  41468795.716   215938880.256         -27.832          35.000    41468776.239   175467964.109          39.000                                                                                                    41468783.351   166977645.590          39.000
> 2024 05 10 22 00 16.0000000  0 42
G04  24634944.818   129457572.593       -3647.480          34.000    24634951.554   100876290.224          20.000    24634951.715   100876286.227                          40.000    24634953.413    96673113.608          45.000    24634943.102   129457806.612          37.000
G05  22256560.367   116959060.602        2609.573          44.000    22256565.371    91136990.013          45.000    22256565.692    91136979.014                          47.000
G07  21112131.340   110945016.399         755.438          51.000    21112134.914    86450507.389          54.000    21112135.593    86450504.400                          52.000
G09  21448813.270   112714355.587       -2542.024          48.000    21448818.917    87829497.790          52.000    21448819.131    87829488.793                          49.000    21448817.326    84169921.073          54.000
G11  23682747.237   124453830.194       -3075.162          41.000    23682753.706    96977000.377          26.000    23682754.027    96976993.371                          44.000    23682756.154    92936344.770          49.000    23682746.094   124453949.177          42.000
G16  23056935.581   121164954.835       -1750.150          42.000    23056940.370    94414387.489          28.000
G18  25671212.899   134903265.546        3144.863          32.000    25671220.029   105119335.051          17.000    25671221.047   105119445.090                          40.000    25671222.870   100739365.303          41.000    25671211.827   134903117.559          33.000
G20  21002481.386   110368837.290         467.039          49.000    21002484.513    86001491.316          42.000
G26                                                                                                                  25671323.330   105119849.564       -2696.426          39.000    25671320.471   100739895.999          44.000
G27  24989315.669   131319724.245        2841.959          34.000    24989323.442   102327099.810          26.000    24989324.193   102327130.806                          38.000    24989319.940    98063463.459          39.000
G29  25290362.443   132901725.496       -2487.100          31.000    25290370.448   103559853.910          21.000    25290370.824   103559615.931                          33.000
G30  22162525.760   116464868.677        2745.712          46.000    22162532.693    90751959.084          49.000    22162533.551    90751950.105                          48.000    22162530.924    86970621.539          54.000
R03  20921846.795   111996373.701       -3188.094          49.000    20921846.080   111996362.704          48.000    20921850.047    87108335.353          50.000    20921849.654    87108333.351          48.000
R04  19121856.422   102396774.418         357.842          54.000    19121855.618   102396799.431          52.000    19121858.334    79642008.410          53.000    19121858.173    79642002.409          52.000
R05  21588595.722   115403472.153        3593.818          47.000    21588595.311   115403458.157          45.000    21588599.260    89758434.365          46.000    21588599.546    89758344.364          45.000
R12  22794901.351   121766266.820       -3918.959          42.000    22794900.154   121766341.831          41.000    22794905.354    94707215.851          43.000    22794906.426    94707192.844          41.000
R13  20083352.023   107244035.536       -1026.590          41.000    20083350.862   107244040.546          39.000    20083353.989    83412035.100          45.000    20083354.346    83412034.110          46.000
R14  21133412.989   112653068.193        3599.485          49.000    21133411.899   112653008.178          47.000    21133418.028    87619065.844          49.000    21133417.635    87619066.842          47.000
R20  21792474.984   116534158.693       -2233.339          37.000    21792474.197   116534151.684          35.000    21792480.952    90637703.307          39.000    21792480.112    90637693.329          38.000
R21  22278758.465   119218122.434        1889.226          44.000    22278757.393   119218092.439          43.000    22278762.467    92725235.794          43.000    22278762.843    92725235.789          41.000
E04  24509997.086   128801019.265       -1834.708          49.000    24509992.065   104546299.194          56.000    24509995.978    98691742.269          53.000    24509997.980    97437201.558          57.000    24509997.640    96182645.253          53.000
E05  25477697.224   133886237.390        2790.791          42.000    25477690.755   108673886.330          45.000    25477698.242   102588178.920          45.000    25477699.886   101284099.989          48.000    25477699.296    99980010.461          44.000
E09  23627730.070   124164642.526         808.989          52.000    23627725.138   100782997.133          59.000    23627729.749    95139182.157          56.000    23627731.786    93929798.605          59.000    23627731.732    92720401.454          56.000
E15  27881553.269   146518543.429        2486.647          38.000    27881550.535   118927378.117          43.000    27881557.772   112267478.663          42.000    27881560.077   110840357.173          47.000    27881560.488   109413228.078          43.000
E21  26519637.380   139361712.122       -1465.532          43.000    26519635.432   113118306.239          50.000    26519639.452   106783704.508          48.000    26519641.561   105426300.356          51.000    26519641.436   104068875.618          47.000
E31  27298706.946   143455628.328        3207.038          40.000    27298703.980   116441299.500          47.000    27298711.128   109920581.071          45.000    27298714.040   108523293.769          49.000    27298714.237   107125998.890          46.000
E34  25628031.261   134676308.676           8.516          46.000    25628028.242   109315209.687          52.000    25628033.978   103193587.218          51.000    25628035.693   101881816.281          54.000    25628035.604   100570036.758          49.000
E36  26278716.330   138095660.479       -2645.863          43.000    26278712.792   112090628.808          49.000    26278718.742   105813607.673          46.000    26278720.958   104468530.144          50.000    26278721.083   103123442.028          47.000
C05  40610528.353   211469900.219         -63.761          34.000    40610522.027   171836389.062          38.000    40610524.260   163521755.883          39.000
C06  39644542.623   206439645.326       -1215.258          35.000    39644531.508   167749053.101          39.000    39644535.958   159632238.702          40.000
C12  26132307.044   136077659.710        1806.856          34.000    26132297.359   110574326.949          40.000    26132302.970   105223981.125          43.000
C16  40678438.574   211823481.732       -1228.592          33.000    40678431.980   172123881.268          36.000    40678439.199   163795357.519          39.000
C19  24322404.224   126653273.779        2772.387          46.000    24322393.824   102916149.183          47.000                                                    24322402.329    95446482.407          50.000    24322400.382    97936383.999          44.000    24322403.884   127815378.492          45.000
C20  21862253.286   113842609.458         152.773          54.000    21862240.403    92506421.652          53.000                                                    21862248.068    85792295.413          57.000    21862246.442    88030335.039          52.000    21862252.446   114887020.244          54.000
C23  23179064.653   120699563.040       -1026.745          50.000    23179048.839    98078274.235          51.000                                                    23179055.879    90959699.781          54.000    23179053.788    93332579.080          49.000    23179063.849   121806897.917          50.000
C25  26130185.598   136066814.637       -3202.056          37.000    26130177.164   110565382.463          41.000                                                    26130181.935   102540529.920          41.000    26130180.916   105215493.448          38.000    26130183.525   137315106.474          37.000
C32  24004461.645   124997604.782       -2867.494          46.000    24004456.123   101570782.182          48.000                                                    24004463.092    94198759.553          51.000    24004461.037    96656075.451          46.000    24004462.020   126144364.397          47.000
C37  23316644.997   121415931.213        2211.885          49.000    23316640.995    98660373.510          50.000                                                    23316646.284    91499584.512          53.000    23316644.640    93886512.069          48.000    23316644.336   122529832.700          49.000
C39  41258690.547   214844919.770       -1336.192          33.000    41258681.773   174579084.723          37.000                                                    41258687.777   161908052.180          37.000    41258685.615   166131736.208          30.000    41258690.797   216815967.571          35.000
C40  40495230.519   210869368.446        2013.706          37.000    40495222.925   171348617.577          39.000                                                    40495228.929   158912051.660          44.000    40495226.713   163057585.817          38.000    40495230.608   212803915.384          38.000
C44  25393311.084   132229594.738         426.520          39.000    25393305.616   107447350.346          43.000                                                    25393312.389    99648747.007          44.000    25393310.155   102248327.444          38.000    25393309.011   133442707.830          35.000
C60  41468800.666   215938908.124         -27.983          35.000    41468781.600   175467986.747          38.000                                                                                                    41468788.729   166977667.130          39.000
> 2024 05 10 22 00 17.0000000  0 42
G04  24635638.726   129461220.142       -3647.577          35.000    24635645.569   100879132.431          19.000    24635645.927   100879128.457                          41.000    24635647.606    96675837.405          46.000    24635637.010   129461454.141          38.000
G05  22256063.716   116956451.288        2609.150          44.000    22256068.951    91134956.771          45.000    22256069.166    91134945.773                          47.000
G07  21111987.477   110944261.224         755.008          51.000    21111991.211    86449918.937          54.000    21111991.872    86449915.946                          52.000
G09  21449297.038   112716897.738       -2542.329          48.000    21449302.631    87831478.685          51.000    21449302.864    87831469.687                          50.000    21449301.077    84171819.430          54.000
G11  23683332.734   124456905.419       -3075.384          41.000    23683338.881    96979396.650          26.000    23683339.238    96979389.664                          44.000    23683341.347    92938641.216          48.000    23683331.018   124457024.423          41.000
G16  23057268.660   121166705.389       -1750.809          42.000    23057273.484    94415751.566          29.000
G18  25670614.591   134900120.839        3144.649          32.000    25670621.613   105116884.636          16.000    25670622.757   105116994.680                          39.000    25670624.579   100737017.011          41.000    25670613.197   134899972.852          33.000
G20  21002392.506   110368370.601         466.519          50.000    21002395.830    86001127.658          42.000
G26                                                                                                                  25671981.982   105122546.063       -2696.530          39.000    25671978.944   100742480.128          44.000
G27  24988775.024   131316882.384        2841.770          34.000    24988782.672   102324885.338          26.000    24988783.476   102324916.333                          38.000    24988779.169    98061341.257          39.000
G29  25290836.240   132904212.726       -2487.340          31.000    25290843.763   103561791.990          21.000    25290844.103   103561554.019                          34.000
G30  22162003.359   116462123.098        2745.451          46.000    22162010.256    90749819.690          48.000    22162011.114    90749810.695                          48.000    22162008.416    86968571.282          54.000
R03  20922442.459   111999562.001       -3188.429          49.000    20922441.941   111999551.022          48.000    20922445.765    87110815.154          50.000    20922445.300    87110813.145          48.000
R04  19121789.878   102396416.904         357.275          54.000    19121788.895   102396441.918          52.000    19121791.504    79641730.341          53.000    19121791.468    79641724.341          52.000
R05  21587923.132   115399878.478        3593.526          47.000    21587923.006   115399864.479          46.000    21587927.420    89755639.276          47.000    21587927.224    89755549.258          45.000
R12  22795635.018   121770185.907       -3919.223          42.000    22795634.214   121770260.922          41.000    22795638.949    94710264.028          43.000    22795640.092    94710241.015          41.000
R13  20083544.097   107245062.561       -1027.337          41.000    20083543.061   107245067.556          39.000    20083547.082    83412833.863          44.000    20083547.010    83412832.858          46.000
R14  21132737.862   112649468.973        3599.003          49.000    21132736.736   112649408.967          46.000    21132742.919    87616266.453          49.000    21132742.329    87616267.460          47.000
R20  21792892.279   116536392.344       -2234.015          37.000    21792891.975   116536385.365          35.000    21792898.372    90639440.612          39.000    21792898.069    90639430.620          38.000
R21  22278405.534   119216233.700        1888.427          44.000    22278404.194   119216203.711          43.000    22278409.501    92723766.762          43.000    22278409.787    92723766.769          41.000
E04  24510346.336   128802854.111       -1834.973          49.000    24510341.190   104547788.534          56.000    24510345.193    98693148.203          53.000    24510347.123    97438589.616          57.000    24510346.801    96184015.441          53.000
E05  25477166.067   133883446.651        2790.719          41.000    25477159.598   108671621.115          45.000    25477167.175   102586040.534          45.000    25477168.819   101281988.790          49.000    25477168.300    99977926.452          44.000
E09  23627576.164   124163833.651         808.776          52.000    23627571.179   100782340.581          59.000    23627575.843    95138562.377          56.000    23627577.844    93929186.699          59.000    23627577.826    92719797.435          56.000
E15  27881080.348   146516056.916        2486.335          39.000    27881077.721   118925359.819          43.000    27881084.869   112265573.450          43.000    27881086.924   110838476.164          47.000    27881087.299   109411371.292          44.000
E21  26519916.369   139363177.947       -1465.970          43.000    26519914.510   113119496.013          50.000    26519918.441   106784827.672          48.000    26519920.532   105427409.245          51.000    26519920.425   104069970.225          47.000
E31  27298096.862   143452421.249        3207.010          40.000    27298093.860   116438696.361          47.000    27298100.811   109918123.709          44.000    27298103.759   108520867.647          49.000    27298103.992   107123604.000          46.000
E34  25628029.635   134676300.437           8.095          46.000    25628026.741   109315202.997          52.000    25628032.334   103193580.906          50.000    25628034.103   101881810.050          54.000    25628034.049   100570030.607          49.000
E36  26279220.004   138098306.450       -2646.111          43.000    26279216.198   112092776.517          49.000    26279222.166   105815635.119          46.000    26279224.471   104470531.820          51.000    26279224.614   103125417.931          47.000
C05  40610540.235   211469963.852         -63.707          34.000    40610534.249   171836440.774          38.000    40610536.411   163521805.082          39.000
C06  39644775.957   206440860.481       -1215.117          35.000    39644764.931   167750040.500          39.000    39644769.470   159633178.319          40.000
C12  26131960.063   136075852.771        1806.751          33.000    26131950.307   110572858.690          41.000    26131956.168   105222583.908          42.000
C16  40678674.302   211824710.158       -1228.191          33.000    40678667.976   172124879.467          36.000    40678675.177   163796307.429          40.000
C19  24321871.923   126650501.489        2772.220          46.000    24321861.380   102913896.478          47.000                                                    24321869.904    95444393.208          50.000    24321867.974    97934240.302          45.000    24321871.351   127812580.774          46.000
C20  21862224.035   113842456.931         152.373          54.000    21862211.097    92506297.706          53.000                                                    21862218.781    85792180.474          57.000    21862217.173    88030217.097          52.000    21862223.123   114886866.318          54.000
C23  23179261.873   120700590.038       -1027.157          50.000    23179246.095    98079108.754          51.000                                                    23179253.028    90960473.740          54.000    23179250.991    93333373.211          49.000    23179261.033   121807934.346          50.000
C25  26130800.524   136070016.684       -3202.158          38.000    26130791.965   110567984.403          42.000                                                    26130796.897   102542943.028          42.000    26130795.825   105217969.494          38.000    26130798.452   137318337.901          39.000
C32  24005012.422   125000472.362       -2867.618          46.000    24005006.882   101573112.319          48.000                                                    24005013.691    94200920.578          51.000    24005011.707    96658292.834          46.000    24005012.779   126147258.298          47.000
C37  23316220.304   121413719.536        2211.535          49.000    23316216.301    98658576.337          51.000                                                    23316221.609    91497917.787          53.000    23316219.911    93884801.860          48.000    23316219.571   122527600.732          50.000
C39  41258947.057   214846256.004       -1336.270          33.000    41258938.390   174580170.492          36.000                                                    41258944.430   161909059.126          36.000    41258942.250   166132769.426          29.000    41258947.218   216817316.027          34.000
C40  40494843.851   210867354.625        2013.758          37.000    40494836.257   171346981.178          40.000                                                    40494842.028   158910534.034          44.000    40494839.974   163056028.592          38.000    40494844.066   212801883.099          38.000
C44  25393229.244   132229168.415         426.020          39.000    25393223.794   107447003.933          44.000                                                    25393230.566    99648425.711          45.000    25393228.369   102247997.784          38.000    25393227.332   133442277.573          35.000
C60  41468806.295   215938935.992         -27.818          35.000    41468786.978   175468009.390          39.000                                                                                                    41468794.108   166977688.679          39.000
> 2024 05 10 22 00 18.0000000  0 42
G04  24636333.062   129464867.767       -3647.626          36.000    24636339.799   100881974.762          20.000    24636339.960   100881970.797                          41.000    24636341.836    96678561.296          46.000    24636331.114   129465101.777          38.000
G05  22255567.475   116953842.475        2608.586          44.000    22255572.318    91132923.928          45.000    22255572.675    91132912.946                          47.000
G07  21111844.006   110943506.560         754.489          51.000    21111847.741    86449330.880          54.000    21111848.241    86449327.892                          53.000
G09  21449780.914   112719440.279       -2542.687          48.000    21449786.453    87833459.879          51.000    21449786.721    87833450.888                          49.000    21449784.934    84173718.083          54.000
G11  23683917.962   124459981.056       -3075.778          41.000    23683924.020    96981793.236          28.000    23683924.770    96981786.227                          45.000    23683926.611    92940937.936          49.000    23683916.372   124460100.054          42.000
G16  23057601.792   121168456.603       -1751.456          42.000    23057606.706    94417116.176          30.000
G18  25670016.407   134896976.457        3144.210          32.000    25670023.251   105114434.471          17.000    25670024.573   105114544.492                          40.000    25670026.324   100734668.896          41.000    25670014.996   134896828.467          34.000
G20  21002303.858   110367904.584         465.729          50.000    21002307.074    86000764.526          42.000
G26                                                                                                                  25672640.545   105125242.745       -2696.847          38.000    25672637.418   100745064.444          44.000
G27  24988234.468   131314040.828        2841.495          34.000    24988241.884   102322671.103          25.000    24988242.616   102322702.109                          38.000    24988238.381    98059219.260          39.000
G29  25291309.626   132906700.402       -2487.958          33.000    25291317.131   103563730.464          23.000    25291317.667   103563492.472                          35.000
G30  22161481.154   116459377.881        2745.052          46.000    22161487.963    90747680.564          49.000    22161488.838    90747671.571                          48.000    22161486.033    86966521.280          54.000
R03  20923038.301   112002750.735       -3188.922          49.000    20923037.158   112002739.747          48.000    20923041.357    87113295.283          50.000    20923040.910    87113293.274          48.000
R04  19121723.137   102396060.072         356.558          54.000    19121722.190   102396085.080          52.000    19121724.673    79641452.794          53.000    19121724.638    79641446.787          52.000
R05  21587250.756   115396285.105        3593.231          48.000    21587250.702   115396271.103          46.000    21587254.812    89752844.437          47.000    21587255.098    89752754.428          45.000
R12  22796368.398   121774105.439       -3919.746          41.000    22796368.112   121774180.441          41.000    22796372.758    94713312.571          43.000    22796373.866    94713289.554          41.000
R13  20083737.190   107246090.522       -1028.349          42.000    20083735.814   107246095.532          40.000    20083739.424    83413633.369          45.000    20083739.442    83413632.379          46.000
R14  21132062.663   112645870.298        3598.457          48.000    21132061.662   112645810.292          47.000    21132067.291    87613467.502          49.000    21132067.094    87613468.509          47.000
R20  21793310.200   116538626.867       -2234.807          38.000    21793309.699   116538619.865          36.000    21793316.740    90641178.535          39.000    21793315.614    90641168.527          38.000
R21  22278052.656   119214345.815        1887.533          45.000    22278051.370   119214315.826          43.000    22278056.516    92722298.400          43.000    22278057.231    92722298.412          41.000
E04  24510695.569   128804689.256       -1835.275          49.000    24510690.404   104549278.126          56.000    24510694.371    98694554.401          54.000    24510696.301    97439977.933          57.000    24510695.962    96185385.886          53.000
E05  25476634.999   133880656.017        2790.581          42.000    25476628.638   108669355.976          45.000    25476636.322   102583902.242          46.000    25476637.787   101279877.678          49.000    25476637.358    99975842.517          44.000
E09  23627422.401   124163025.093         808.383          51.000    23627417.309   100781684.284          59.000    23627422.062    95137942.824          56.000    23627423.992    93928575.028          59.000    23627424.010    92719193.631          55.000
E15  27880607.069   146513570.766        2485.964          39.000    27880604.406   118923341.850          44.000    27880611.858   112263668.496          44.000    27880613.823   110836595.432          47.000    27880614.306   109409514.780          43.000
E21  26520195.483   139364644.226       -1466.477          43.000    26520193.499   113120686.174          50.000    26520197.448   106785951.169          47.000    26520199.539   105428518.458          51.000    26520199.396   104071065.156          47.000
E31  27297486.796   143449214.246        3207.000          40.000    27297483.418   116436093.276          47.000    27297490.620   109915666.400          44.000    27297493.479   108518441.584          49.000    27297493.640   107121209.178          45.000
E34  25628028.081   134676292.737           7.513          46.000    25628025.186   109315196.752          51.000    25628030.886   103193575.022          50.000    25628032.637   101881804.234          54.000    25628032.584   100570024.860          49.000
E36  26279723.464   138100952.721       -2646.403          43.000    26279719.925   112094924.462          49.000    26279725.840   105817662.782          47.000    26279728.020   104472533.703          51.000    26279728.342   103127394.036          47.000
C05  40610552.458   211470027.437         -63.553          33.000    40610546.436   171836492.441          39.000    40610548.598   163521854.252          39.000
C06  39645009.255   206442075.680       -1215.345          35.000    39644998.265   167751027.953          38.000    39645002.786   159634117.997          40.000
C12  26131613.208   136074046.373        1806.303          34.000    26131603.487   110571390.836          42.000    26131609.205   105221187.075          43.000
C16  40678910.012   211825938.543       -1228.303          33.000    40678903.847   172125877.636          36.000    40678911.120   163797257.292          39.000
C19  24321339.426   126647729.423        2771.922          45.000    24321329.009   102911643.947          47.000                                                    24321337.568    95442304.153          50.000    24321335.620    97932096.767          45.000    24321339.033   127809783.267          45.000
C20  21862194.837   113842304.889         151.830          54.000    21862181.899    92506174.172          53.000                                                    21862189.529    85792065.899          56.000    21862188.011    88030099.536          52.000    21862193.907   114886712.873          54.000
C23  23179459.111   120701617.549       -1027.766          50.000    23179443.351    98079943.690          52.000                                                    23179450.391    90961248.072          54.000    23179448.301    93334167.743          49.000    23179458.379   121808971.272          50.000
C25  26131415.469   136073218.862       -3202.313          38.000    26131407.035   110570586.475          41.000                                                    26131411.877   102545356.236          41.000    26131410.805   105220445.668          38.000    26131413.503   137321569.447          38.000
C32  24005563.127   125003340.213       -2867.988          46.000    24005557.552   101575442.680          48.000                                                    24005564.467    94203081.782          51.000    24005562.466    96660510.439          46.000    24005563.306   126150152.441          47.000
C37  23315795.504   121411508.283        2211.076          49.000    23315791.591    98656779.508          51.000                                                    23315796.915    91496251.366          53.000    23315795.272    93883091.977          48.000    23315794.861   122525369.187          49.000
C39  41259203.477   214847592.201       -1336.189          34.000    41259195.079   174581256.240          37.000                                                    41259201.119   161910066.087          37.000    41259198.992   166133802.627          30.000    41259203.906   216818664.517          35.000
C40  40494457.165   210865340.909        2013.611          37.000    40494449.482   171345344.849          40.000                                                    40494455.486   158909016.459          44.000    40494453.270   163054471.434          38.000    40494457.183   212799850.891          38.000
C44  25393147.529   132228742.651         425.522          39.000    25393141.990   107446657.943          43.000                                                    25393148.780    99648104.864          45.000    25393146.636   102247668.538          38.000    25393145.617   133441847.911          36.000
C60  41468811.548   215938963.822         -27.968          35.000    41468792.285   175468032.019          39.000                                                                                                    41468799.469   166977710.218          40.000
> 2024 05 10 22 00 19.0000000  0 43
G04  24637027.363   129468515.503       -3647.761          36.000    24637034.135   100884817.163          20.000    24637033.957   100884813.157                          41.000    24637035.940    96681285.251          46.000    24637025.254   129468749.496          38.000
G05  22255071.163   116951234.141        2608.147          45.000    22255076.005    91130891.473          45.000    22255076.452    91130880.486                          47.000
G07  21111700.411   110942752.416         753.989          51.000    21111704.163    86448743.226          54.000    21111704.771    86448740.237                          52.000
G09  21450264.789   112721983.231       -2543.066          48.000    21450270.418    87835441.397          51.000    21450270.578    87835432.409                          49.000    21450268.845    84175617.034          53.000
G11  23684503.298   124463056.998       -3076.064          41.000    23684509.302    96984190.057          27.000    23684509.820    96984183.065                          44.000    23684512.000    92943234.870          48.000    23684501.779   124463175.981          41.000
G13  24279779.063   127591101.962        3784.942          32.000
G16  23057935.585   121170208.533       -1752.196          42.000    23057939.963    94418481.333          29.000
G18  25669417.991   134893832.374        3143.971          32.000    25669424.943   105111984.557          16.000    25669425.997   105112094.571                          39.000    25669428.070   100732321.058          40.000    25669416.473   134893684.387          33.000
G20  21002215.477   110367439.231         465.126          50.000    21002218.533    86000401.910          42.000
G26                                                                                                                  25673299.304   105127939.607       -2697.005          39.000    25673296.070   100747648.948          44.000
G27  24987694.037   131311199.751        2840.890          33.000    24987701.256   102320457.233          26.000    24987702.060   102320488.218                          38.000    24987697.843    98057097.636          39.000
G29  25291783.030   132909188.477       -2488.448          31.000    25291790.750   103565669.237          23.000    25291790.857   103565431.206                          34.000
G30  22160958.718   116456633.000        2744.759          46.000    22160965.776    90745541.695          48.000    22160966.491    90745532.669                          48.000    22160963.685    86964471.503          54.000
R03  20923634.287   112005939.900       -3189.323          49.000    20923633.268   112005928.918          48.000    20923637.057    87115775.751          50.000    20923636.788    87115773.749          48.000
R04  19121656.521   102395703.928         355.895          54.000    19121655.753   102395728.945          52.000    19121658.379    79641175.786          53.000    19121658.219    79641169.786          52.000
R05  21586578.702   115392692.004        3593.056          48.000    21586578.631   115392678.007          46.000    21586582.597    89750049.814          47.000    21586582.705    89749959.807          45.000
R12  22797102.100   121778025.388       -3920.018          41.000    22797101.618   121778100.390          41.000    22797106.550    94716361.462          43.000    22797107.908    94716338.447          41.000
R13  20083929.782   107247119.369       -1029.209          42.000    20083928.174   107247124.393          40.000    20083931.962    83414433.595          44.000    20083932.034    83414432.591          46.000
R14  21131387.678   112642272.218        3597.919          49.000    21131386.678   112642212.198          47.000    21131392.610    87610669.007          49.000    21131392.217    87610670.005          48.000
R20  21793728.388   116540862.170       -2235.677          37.000    21793728.281   116540855.158          35.000    21793734.446    90642917.069          39.000    21793733.999    90642907.080          38.000
R21  22277699.922   119212458.841        1886.560          44.000    22277699.189   119212428.846          43.000    22277704.282    92720830.784          42.000    22277704.800    92720830.781          41.000
E04  24511044.747   128806524.648       -1835.469          49.000    24511039.511   104550767.921          56.000    24511043.568    98695960.749          54.000    24511045.533    97441366.420          57.000    24511045.212    96186756.497          53.000
E05  25476103.914   133877865.435        2790.586          42.000    25476097.606   108667090.886          46.000    25476105.219   102581764.014          45.000    25476106.809   101277766.633          49.000    25476106.327    99973758.659          44.000
E09  23627268.549   124162216.879         808.107          51.000    23627263.546   100781028.266          59.000    23627268.174    95137323.551          56.000    23627270.193    93927963.619          59.000    23627270.139    92718590.098          55.000
E15  27880133.986   146511084.974        2485.757          39.000    27880131.163   118921324.197          43.000    27880138.811   112261763.861          44.000    27880140.759   110834715.013          47.000    27880141.259   109407658.575          44.000
E21  26520474.633   139366110.928       -1466.824          44.000    26520472.738   113121876.679          50.000    26520476.634   106787074.974          48.000    26520478.653   105429627.986          52.000    26520478.474   104072160.392          48.000
E31  27296876.247   143446007.392        3206.819          40.000    27296873.263   116433490.320          47.000    27296880.267   109913209.203          44.000    27296883.216   108516015.611          49.000    27296883.359   107118814.436          46.000
E34  25628026.937   134676285.550           6.998          46.000    25628023.739   109315190.930          51.000    25628029.457   103193569.511          50.000    25628031.261   101881798.800          54.000    25628031.172   100570019.508          49.000
E36  26280226.852   138103599.294       -2646.744          43.000    26280223.421   112097072.655          49.000    26280229.496   105819690.662          47.000    26280231.659   104474535.811          51.000    26280231.855   103129370.368          47.000
C05  40610564.805   211470091.018         -63.555          34.000    40610558.623   171836544.109          38.000    40610560.856   163521903.422          39.000
C06  39645242.731   206443290.890       -1215.291          36.000    39645231.635   167752015.415          38.000    39645236.138   159635057.681          40.000
C12  26131266.388   136072240.510        1805.579          34.000    26131256.667   110569923.446          41.000    26131262.439   105219790.701          43.000
C16  40679146.205   211827167.001       -1228.465          33.000    40679139.790   172126875.861          36.000    40679146.812   163798207.214          40.000
C19  24320807.090   126644957.584        2771.792          45.000    24320796.816   102909391.596          48.000                                                    24320805.250    95440215.287          50.000    24320803.338    97929953.397          45.000    24320806.697   127806986.019          45.000
C20  21862165.781   113842153.327         151.403          54.000    21862152.809    92506051.018          53.000                                                    21862160.457    85791951.688          57.000    21862158.866    88029982.345          52.000    21862164.727   114886559.912          54.000
C23  23179656.511   120702645.623       -1028.315          50.000    23179640.839    98080779.083          51.000                                                    23179647.844    90962022.823          54.000    23179645.771    93334962.720          49.000    23179655.796   121810008.778          50.000
C25  26132030.717   136076421.217       -3202.506          38.000    26132021.997   110573188.648          41.000                                                    26132026.733   102547769.537          41.000    26132025.786   105222921.937          38.000    26132028.341   137324801.200          38.000
C32  24006114.029   125006208.328       -2868.195          46.000    24006108.365   101577773.254          48.000                                                    24006115.280    94205243.215          51.000    24006113.261    96662728.243          46.000    24006114.011   126153046.876          47.000
C37  23315370.918   121409297.481        2210.656          49.000    23315367.058    98654983.053          51.000                                                    23315372.437    91494585.312          53.000    23315370.775    93881382.452          48.000    23315370.400   122523138.102          49.000
C39  41259460.237   214848928.468       -1336.197          34.000    41259451.732   174582342.059          36.000                                                    41259457.807   161911073.114          37.000    41259455.645   166134835.906          30.000    41259460.523   216820013.025          35.000
C40  40494070.230   210863327.295        2013.610          37.000    40494062.725   171343708.616          40.000                                                    40494068.693   158907499.004          44.000    40494066.566   163052914.373          38.000    40494070.587   212797818.821          38.000
C44  25393066.028   132228317.482         424.906          39.000    25393060.364   107446312.451          43.000                                                    25393067.154    99647784.427          44.000    25393064.956   102247339.764          38.000    25393063.813   133441418.853          35.000
C60  41468816.909   215938991.687         -27.984          35.000    41468797.610   175468054.664          39.000                                                                                                    41468804.776   166977731.769          40.000
> 2024 05 10 22 00 20.0000000  0 43
G04  24637721.432   129472163.331       -3647.897          36.000    24637728.329   100887659.603          21.000    24637728.240   100887655.613                          41.000    24637730.062    96684009.258          46.000    24637719.412   129472397.318          38.000
G05  22254574.833   116948626.344        2607.692          45.000    22254579.800    91128859.421          46.000    22254580.158    91128848.430                          47.000
G07  21111557.030   110941998.806         753.523          51.000    21111560.961    86448155.995          54.000    21111561.425    86448153.011                          52.000
G09  21450748.628   112724526.567       -2543.407          48.000    21450754.382    87837423.206          51.000    21450754.579    87837414.202                          49.000    21450752.828    84177516.255          54.000
G11  23685088.848   124466133.350       -3076.465          41.000    23685094.584    96986587.195          27.000    23685095.066    96986580.209                          44.000    23685097.443    92945532.140          48.000    23685087.436   124466252.354          41.000
G13  24279058.959   127587317.175        3784.821          32.000
G16  23058269.182   121171961.141       -1752.757          42.000    23058273.613    94419847.036          29.000
G18  25668819.665   134890688.673        3143.665          32.000    25668826.777   105109534.881          16.000    25668827.992   105109644.925                          41.000    25668829.886   100729973.480          41.000    25668818.253   134890540.675          34.000
G20  21002127.026   110366974.561         464.461          50.000    21002130.046    86000039.825          42.000
G26                                                                                                                  25673957.760   105130636.678       -2697.015          39.000    25673954.597   100750233.652          44.000
G27  24987153.249   131308358.929        2840.729          32.000    24987160.718   102318243.569          25.000    24987161.451   102318274.568                          38.000    24987157.198    98054976.178          40.000
G29  25292256.327   132911676.930       -2488.507          31.000    25292264.243   103567608.246          22.000    25292264.583   103567370.261                          33.000
G30  22160436.335   116453888.528        2744.373          46.000    22160443.536    90743403.115          47.000    22160444.179    90743394.122                          48.000    22160441.427    86962422.056          53.000
R03  20924229.879   112009129.552       -3189.733          49.000    20924228.843   112009118.563          48.000    20924232.935    87118256.598          50.000    20924232.649    87118254.582          48.000
R04  19121590.281   102395348.502         355.252          54.000    19121589.441   102395373.518          52.000    19121591.817    79640899.339          53.000    19121591.871    79640893.338          52.000
R05  21585906.541   115389099.227        3592.730          47.000    21585906.523   115389085.231          45.000    21585910.847    89747255.412          47.000    21585910.776    89747165.410          45.000
R12  22797836.070   121781945.632       -3920.315          41.000    22797835.213   121782020.644          41.000    22797840.466    94719410.506          44.000    22797841.628    94719387.499          42.000
R13  20084122.375   107248149.134       -1030.060          42.000    20084121.428   107248154.144          39.000    20084124.501    83415234.521          44.000    20084125.001    83415233.510          45.000
R14  21130712.926   112638674.710        3597.363          49.000    21130711.693   112638614.695          47.000    21130717.733    87607870.948          49.000    21130717.375    87607871.952          48.000
R20  21794146.399   116543098.329       -2236.506          37.000    21794146.470   116543091.309          35.000    21794152.706    90644656.297          39.000    21794152.170    90644646.317          38.000
R21  22277347.705   119210572.722        1885.931          44.000    22277346.133   119210542.733          44.000    22277351.261    92719363.774          43.000    22277352.083    92719363.790          41.000
E04  24511394.069   128808360.283       -1835.677          50.000    24511388.958   104552257.901          56.000    24511392.907    98697367.297          54.000    24511394.837    97442755.086          57.000    24511394.515    96188127.273          53.000
E05  25475572.615   133875075.039        2790.363          42.000    25475566.718   108664825.945          46.000    25475574.133   102579625.889          46.000    25475575.831   101275655.676          49.000    25475575.366    99971674.880          44.000
E09  23627114.804   124161409.022         807.814          52.000    23627109.747   100780372.543          59.000    23627114.447    95136704.544          56.000    23627116.466    93927352.480          59.000    23627116.430    92717986.824          55.000
E15  27879660.708   146508599.335        2485.485          39.000    27879658.045   118919306.642          44.000    27879665.854   112259859.261          43.000    27879667.730   110832834.617          48.000    27879668.248   109405802.392          44.000
E21  26520753.872   139367578.129       -1467.347          43.000    26520751.853   113123067.577          50.000    26520755.748   106788199.213          47.000    26520757.874   105430737.925          52.000    26520757.624   104073256.049          47.000
E31  27296265.984   143442800.651        3206.760          40.000    27296263.161   116430887.441          47.000    27296269.969   109910752.073          44.000    27296273.007   108513589.723          49.000    27296273.239   107116419.794          46.000
E34  25628025.668   134676278.950           6.477          46.000    25628022.488   109315185.569          52.000    25628028.134   103193564.457          51.000    25628029.993   101881793.807          54.000    25628029.850   100570014.578          50.000
E36  26280730.597   138106246.199       -2646.884          43.000    26280727.024   112099221.112          49.000    26280733.224   105821718.816          47.000    26280735.351   104476538.180          51.000    26280735.565   103131346.951          47.000
C05  40610576.903   211470154.687         -63.506          33.000    40610570.845   171836595.845          38.000    40610573.257   163521952.661          39.000
C06  39645476.029   206444506.135       -1215.210          35.000    39645464.986   167753002.922          38.000    39645469.471   159635997.404          40.000
C12  26130919.586   136070435.075        1805.353          35.000    26130910.008   110568456.406          41.000    26130915.690   105218394.644          43.000
C16  40679382.290   211828395.398       -1228.201          34.000    40679375.804   172127874.027          36.000    40679382.612   163799157.093          40.000
C19  24320275.112   126642186.033        2771.523          45.000    24320264.533   102907139.481          47.000                                                    24320273.003    95438126.633          50.000    24320271.127    97927810.257          45.000    24320274.558   127804189.029          45.000
C20  21862136.673   113842002.283         150.918          54.000    21862123.825    92505928.287          53.000                                                    21862131.384    85791837.867          57.000    21862129.847    88029865.555          52.000    21862135.797   114886407.488          54.000
C23  23179854.106   120703674.224       -1028.721          49.000    23179838.399    98081614.910          51.000                                                    23179845.315    90962797.987          54.000    23179843.313    93335758.102          49.000    23179853.266   121811046.822          50.000
C25  26132645.483   136079623.752       -3202.491          37.000    26132636.978   110575790.975          41.000                                                    26132641.802   102550183.008          41.000    26132640.802   105225398.342          38.000    26132643.285   137328033.122          38.000
C32  24006664.717   125009076.737       -2868.452          47.000    24006659.160   101580104.072          48.000                                                    24006666.218    94207404.858          51.000    24006664.091    96664946.279          46.000    24006665.056   126155941.597          48.000
C37  23314946.654   121407087.167        2210.244          48.000    23314942.526    98653186.999          51.000                                                    23314947.940    91492919.630          53.000    23314946.296    93879673.304          48.000    23314945.850   122520907.516          49.000
C39  41259716.997   214850264.650       -1336.073          34.000    41259708.224   174583427.819          37.000                                                    41259714.370   161912080.045          37.000    41259712.333   166135869.138          30.000    41259717.033   216821361.486          35.000
C40  40493683.794   210861313.837        2013.518          37.000    40493676.128   171342072.521          40.000                                                    40493682.061   158905981.654          44.000    40493679.934   163051357.451          38.000    40493683.973   212795786.897          38.000
C44  25392984.224   132227892.895         424.419          39.000    25392978.863   107445967.440          43.000                                                    25392985.636    99647464.465          44.000    25392983.474   102247011.439          38.000    25392982.205   133440990.377          36.000
C60  41468822.234   215939019.509         -27.804          36.000    41468803.025   175468077.269          40.000                                                                                                    41468810.119   166977753.276          40.000
> 2024 05 10 22 00 21.0000000  0 43
G04  24638415.500   129475811.214       -3647.863          36.000    24638422.487   100890502.123          20.000    24638422.237   100890498.142                          41.000    24638424.167    96686733.340          46.000    24638413.713   129476045.222          38.000
G05  22254078.485   116946019.057        2607.184          45.000    22254083.596    91126827.776          45.000    22254084.132    91126816.805                          47.000
G07  21111413.774   110941245.697         752.911          51.000    21111417.669    86447569.148          54.000    21111418.027    86447566.152                          52.000
G09  21451232.897   112727070.300       -2543.831          48.000    21451238.400    87839405.329          51.000    21451238.811    87839396.347                          49.000    21451236.899    84179415.802          54.000
G11  23685674.147   124469210.113       -3076.908          41.000    23685680.080    96988984.670          27.000    23685680.580    96988977.692                          44.000    23685682.903    92947829.744          48.000    23685672.825   124469329.102          41.000
G13  24278338.855   127583532.467        3784.715          32.000
G16  23058602.779   121173714.410       -1753.408          42.000    23058607.371    94421213.230          29.000
G18  25668221.535   134887545.286        3143.165          33.000    25668228.826   105107085.470          18.000    25668229.648   105107195.475                          41.000    25668231.703   100727626.093          42.000    25668220.159   134887397.288          35.000
G20  21002038.646   110366510.542         463.813          50.000    21002042.041    85999678.250          42.000
G26                                                                                                                  25674616.412   105133333.952       -2697.475          39.000    25674613.231   100752818.520          45.000
G27  24986612.854   131305518.609        2840.212          32.000    24986620.145   102316030.268          25.000    24986621.020   102316061.290                          39.000    24986616.857    98052855.124          39.000
G29  25292729.856   132914165.844       -2488.787          31.000    25292738.040   103569547.648          22.000    25292738.630   103569309.652                          34.000
G30  22159914.148   116451144.525        2743.903          46.000    22159920.956    90741264.933          48.000    22159921.903    90741255.954                          48.000    22159919.205    86960372.987          54.000
R03  20924825.883   112012319.646       -3190.247          49.000    20924824.793   112012308.646          48.000    20924829.296    87120737.769          50.000    20924828.617    87120735.769          48.000
R04  19121523.915   102394993.766         354.554          54.000    19121523.022   102395018.780          52.000    19121525.648    79640623.431          53.000    19121525.666    79640617.430          52.000
R05  21585234.862   115385506.747        3592.371          48.000    21585234.683   115385492.738          46.000    21585238.490    89744461.267          47.000    21585238.722    89744371.263          45.000
R12  22798569.933   121785866.274       -3920.706          41.000    22798569.165   121785941.282          41.000    22798574.258    94722459.882          44.000    22798575.633    94722436.872          42.000
R13  20084315.485   107249179.806       -1030.940          41.000    20084314.413   107249184.800          40.000    20084317.808    83416036.150          44.000    20084317.844    83416035.146          46.000
R14  21130037.977   112635077.717        3596.845          49.000    21130037.030   112635017.717          47.000    21130043.195    87605073.307          49.000    21130042.641    87605074.305          48.000
R20  21794564.534   116545335.277       -2237.174          36.000    21794564.837   116545328.278          35.000    21794571.860    90646396.113          39.000    21794570.663    90646386.151          38.000
R21  22276995.257   119208687.382        1885.110          44.000    22276994.077   119208657.396          43.000    22276998.991    92717897.399          43.000    22276999.760    92717897.401          41.000
E04  24511743.408   128810196.183       -1835.944          50.000    24511738.226   104553748.091          56.000    24511742.229    98698774.037          53.000    24511744.176    97444143.943          57.000    24511743.908    96189498.254          54.000
E05  25475041.887   133872284.687        2790.318          42.000    25475035.829   108662561.034          46.000    25475043.155   102577487.829          46.000    25475044.853   101273544.799          49.000    25475044.353    99969591.173          44.000
E09  23626961.077   124160601.491         807.450          52.000    23626956.056   100779717.075          59.000    23626960.827    95136085.794          56.000    23626962.792    93926741.595          59.000    23626962.703    92717383.809          55.000
E15  27879188.108   146506114.092        2485.242          39.000    27879185.159   118917289.395          44.000    27879192.861   112257954.938          44.000    27879194.791   110830954.515          47.000    27879195.291   109403946.498          44.000
E21  26521033.075   139369045.764       -1467.654          43.000    26521031.020   113124258.846          50.000    26521035.130   106789323.782          47.000    26521037.132   105431848.204          51.000    26521036.899   104074352.027          47.000
E31  27295655.953   143439594.003        3206.635          40.000    27295652.898   116428284.637          47.000    27295659.617   109908295.059          44.000    27295662.797   108511163.941          49.000    27295663.083   107114025.237          46.000
E34  25628024.275   134676272.864           5.951          46.000    25628021.398   109315180.629          52.000    25628027.062   103193559.804          50.000    25628028.831   101881789.212          54.000    25628028.813   100570010.044          49.000
E36  26281234.557   138108893.406       -2647.304          43.000    26281230.769   112101369.811          49.000    26281236.916   105823747.187          47.000    26281239.096   104478540.768          51.000    26281239.418   103133323.755          48.000
C05  40610589.357   211470218.294         -63.422          33.000    40610583.103   171836647.524          39.000    40610585.426   163522001.835          40.000
C06  39645709.631   206445721.458       -1215.182          36.000    39645698.356   167753990.487          39.000    39645702.859   159636937.191          40.000
C12  26130572.980   136068630.099        1804.806          35.000    26130563.420   110566989.712          41.000    26130569.210   105216998.922          43.000
C16  40679617.965   211829623.777       -1228.354          34.000    40679611.693   172128872.167          36.000    40679618.680   163800106.924          40.000
C19  24319742.704   126639414.729        2771.219          45.000    24319732.286   102904887.575          47.000                                                    24319740.756    95436038.177          50.000    24319738.934    97925667.311          45.000    24319742.257   127801392.294          45.000
C20  21862107.779   113841851.710         150.395          54.000    21862094.895    92505805.943          53.000                                                    21862102.472    85791724.406          57.000    21862100.917    88029749.129          52.000    21862106.832   114886255.536          54.000
C23  23180051.791   120704703.366       -1029.321          49.000    23180035.995    98082451.162          51.000                                                    23180043.000    90963573.533          54.000    23180040.963    93336553.891          49.000    23180051.005   121812085.394          50.000
C25  26133260.303   136082826.555       -3202.843          37.000    26133252.047   110578393.531          40.000                                                    26133256.818   102552596.695          40.000    26133255.782   105227874.975          37.000    26133258.409   137331265.296          37.000
C32  24007215.619   125011945.391       -2868.704          47.000    24007209.990   101582435.088          48.000                                                    24007217.030    94209566.685          51.000    24007214.975    96667164.501          46.000    24007215.887   126158836.572          47.000
C37  23314522.086   121404877.270        2209.815          49.000    23314518.172    98651391.297          51.000                                                    23314523.497    91491254.249          53.000    23314521.925    93877964.491          48.000    23314521.514   122518677.330          50.000
C39  41259973.561   214851600.931       -1336.037          34.000    41259964.894   174584513.640          36.000                                                    41259971.095   161913087.010          37.000    41259969.004   166136902.422          29.000    41259973.686   216822709.962          34.000
C40  40493297.234   210859300.435        2013.418          38.000    40493289.568   171340436.484          40.000                                                    40493295.482   158904464.370          44.000    40493293.338   163049800.575          38.000    40493297.341   212793755.021          38.000
C44  25392902.956   132227468.899         423.799          39.000    25392897.434   107445622.894          43.000                                                    25392904.171    99647144.904          44.000    25392902.098   102246683.565          38.000    25392900.919   133440562.499          35.000
C60  41468827.559   215939047.359         -27.843          36.000    41468808.367   175468099.885          40.000                                                                                                    41468815.444   166977774.798          40.000
> 2024 05 10 22 00 22.0000000  0 43
G04  24639109.515   129479459.185       -3648.009          35.000    24639116.573   100893344.691          21.000    24639116.305   100893340.701                          41.000    24639118.414    96689457.459          46.000    24639107.871   129479693.193          38.000
G05  22253582.584   116943412.240        2606.724          45.000    22253587.498    91124796.492          45.000    22253587.980    91124785.501                          47.000
G07  21111270.482   110940493.123         752.431          51.000    21111274.270    86446982.712          54.000    21111274.914    86446979.722                          52.000
G09  21451716.951   112729614.443       -2544.247          48.000    21451722.472    87841387.776          51.000    21451722.865    87841378.771                          48.000    21451721.025    84181315.634          54.000
G11  23686259.858   124472287.211       -3077.189          41.000    23686265.755    96991382.429          27.000    23686266.184    96991375.448                          43.000    23686268.507    92950127.588          48.000    23686258.250   124472406.212          41.000
G13  24277618.519   127579747.859        3784.652          32.000
G16  23058936.358   121175468.353       -1754.165          41.000    23058941.147    94422579.942          29.000
G18  25667623.584   134884402.149        3143.062          33.000    25667630.768   105104636.263          19.000    25667631.643   105104746.284                          41.000    25667633.591   100725278.936          41.000    25667622.047   134884254.179          34.000
G20  21001950.623   110366047.205         463.115          51.000    21001953.732    85999317.208          42.000
G26                                                                                                                  25675274.921   105136031.359       -2697.531          39.000    25675272.151   100755403.552          45.000
G27  24986072.406   131302678.656        2839.815          32.000    24986079.660   102313817.283          26.000    24986080.643   102313848.276                          39.000    24986076.462    98050734.308          39.000
G29                                                                                                                  25293212.391   103571249.436       -1940.040          34.000
G30  22159392.069   116448400.848        2743.548          46.000    22159399.038    90739127.024          48.000    22159399.717    90739118.028                          48.000    22159397.090    86958324.146          53.000
R03  20925421.743   112015510.146       -3190.637          49.000    20925420.832   112015499.158          48.000    20925425.228    87123219.288          50.000    20925424.584    87123217.279          48.000
R04  19121457.728   102394639.709         353.839          53.000    19121456.924   102394664.729          52.000    19121459.497    79640348.046          53.000    19121459.461    79640342.051          52.000
R05  21584562.629   115381914.514        3592.125          48.000    21584562.469   115381900.511          46.000    21584566.596    89741667.294          47.000    21584566.757    89741577.292          45.000
R12  22799304.118   121789787.359       -3921.230          41.000    22799303.242   121789862.382          40.000    22799308.692    94725509.618          43.000    22799309.478    94725486.615          41.000
R13  20084508.667   107250211.366       -1031.832          42.000    20084507.434   107250216.382          40.000    20084510.901    83416838.470          44.000    20084511.240    83416837.480          46.000
R14  21129363.297   112631481.253        3596.308          49.000    21129362.153   112631421.256          47.000    21129368.246    87602276.057          50.000    21129367.853    87602277.055          48.000
R20  21794983.062   116547573.004       -2237.935          37.000    21794983.026   116547566.008          35.000    21794990.442    90648136.607          38.000    21794988.834    90648126.604          38.000
R21  22276642.969   119206802.933        1884.245          45.000    22276641.754   119206772.959          44.000    22276646.936    92716431.717          43.000    22276647.669    92716431.726          42.000
E04  24512092.801   128812032.349       -1836.321          50.000    24512087.691   104555238.493          56.000    24512091.604    98700180.978          53.000    24512093.587    97445533.000          57.000    24512093.230    96190869.428          53.000
E05  25474511.266   133869494.443        2790.229          42.000    25474504.994   108660296.221          46.000    25474512.106   102575349.836          46.000    25474513.893   101271433.974          49.000    25474513.303    99967507.532          44.000
E09  23626807.528   124159794.277         807.106          52.000    23626802.507   100779061.873          59.000    23626807.135    95135467.281          56.000    23626809.172    93926130.952          59.000    23626809.119    92716781.024          56.000
E15  27878715.204   146503629.145        2484.958          39.000    27878712.506   118915272.369          44.000    27878720.207   112256050.866          45.000    27878721.958   110829074.643          48.000    27878722.477   109402090.821          45.000
E21  26521312.529   139370513.874       -1468.245          43.000    26521310.510   113125450.506          50.000    26521314.423   106790448.685          47.000    26521316.496   105432958.807          51.000    26521316.299   104075448.326          48.000
E31  27295045.458   143436387.490        3206.501          40.000    27295042.653   116425681.951          47.000    27295049.461   109905838.131          44.000    27295052.606   108508738.246          49.000    27295052.981   107111630.761          46.000
E34  25628023.238   134676267.330           5.356          46.000    25628020.290   109315176.146          51.000    25628026.097   103193555.550          50.000    25628027.759   101881785.023          54.000    25628027.741   100570005.907          49.000
E36  26281738.160   138111540.901       -2647.549          43.000    26281734.586   112103518.754          50.000    26281740.769   105825775.775          47.000    26281742.913   104480543.578          51.000    26281743.128   103135300.776          48.000
C05  40610601.669   211470281.887         -63.634          33.000    40610595.361   171836699.196          38.000    40610597.559   163522051.009          40.000
C06  39645942.893   206446936.782       -1215.401          36.000    39645931.743   167754978.060          39.000    39645936.264   159637876.981          40.000
C12  26130226.625   136066825.521        1804.159          34.000    26130216.797   110565523.312          41.000    26130222.694   105215603.466          43.000
C16  40679853.890   211830852.186       -1228.332          34.000    40679847.475   172129870.330          36.000    40679854.336   163801056.778          40.000
C19  24319210.743   126636643.643        2771.032          45.000    24319200.111   102902635.847          48.000                                                    24319208.581    95433949.899          50.000    24319206.741    97923524.545          45.000    24319210.082   127798595.791          46.000
C20  21862079.010   113841701.620         149.926          54.000    21862066.054    92505683.983          53.000                                                    21862073.667    85791611.295          57.000    21862072.112    88029633.076          52.000    21862077.973   114886104.072          54.000
C23  23180249.637   120705733.026       -1029.851          49.000    23180233.734    98083287.840          51.000                                                    23180240.774    90964349.491          54.000    23180238.719    93337350.080          49.000    23180248.690   121813124.508          50.000
C25  26133875.462   136086029.538       -3202.973          38.000    26133867.206   110580996.265          41.000                                                    26133871.816   102555010.529          41.000    26133870.869   105230351.790          38.000    26133873.621   137334497.650          38.000
C32  24007766.789   125014814.317       -2869.018          47.000    24007761.017   101584766.323          48.000                                                    24007768.004    94211728.707          51.000    24007765.967    96669382.935          46.000    24007766.860   126161731.801          47.000
C37  23314097.875   121402667.797        2209.293          49.000    23314093.801    98649595.929          51.000                                                    23314099.180    91489589.202          53.000    23314097.607    93876256.000          48.000    23314097.214   122516447.595          49.000
C39  41260230.321   214852937.168       -1336.199          34.000    41260221.565   174585599.447          37.000                                                    41260227.712   161914094.009          38.000    41260225.639   166137935.683          30.000    41260230.410   216824058.465          35.000
C40  40492910.441   210857287.129        2013.305          37.000    40492902.793   171338800.508          40.000                                                    40492908.832   158902947.101          44.000    40492906.795   163048243.763          38.000    40492910.816   212791723.223          38.000
C44  25392821.777   132227045.466         423.210          39.000    25392816.041   107445278.822          43.000                                                    25392822.706    99646825.821          44.000    25392820.830   102246356.140          38.000    25392819.490   133440135.196          35.000
C60  41468832.920   215939075.181         -27.848          36.000    41468813.639   175468122.500          40.000                                                                                                    41468820.786   166977796.316          41.000
> 2024 05 10 22 00 23.0000000  0 43
G04  24639803.709   129483107.259       -3648.195          36.000    24639810.731   100896187.321          20.000    24639810.499   100896183.356                          41.000    24639812.751    96692181.670          46.000    24639802.387   129483341.249          38.000
G05  22253086.361   116940805.909        2606.116          45.000    22253091.633    91122765.583          45.000    22253091.954    91122754.601                          47.000
G07  21111127.315   110939741.076         751.830          52.000    21111131.121    86446396.702          54.000    21111131.765    86446393.727                          52.000
G09  21452201.166   112732159.009       -2544.802          48.000    21452206.759    87843370.548          51.000    21452207.044    87843361.557                          49.000    21452205.258    84183215.805          54.000
G11  23686845.551   124475364.638       -3077.543          40.000    23686851.216    96993780.438          27.000    23686851.841    96993773.464                          44.000    23686854.075    92952425.682          49.000    23686843.800   124475483.674          41.000
G13  24276898.166   127575963.336        3784.537          32.000
G16  23059270.348   121177223.027       -1755.014          41.000    23059274.993    94423947.241          30.000
G18  25667025.437   134881259.384        3142.853          32.000    25667032.977   105102187.309          19.000    25667033.674   105102297.351                          41.000    25667035.515   100722932.029          41.000    25667023.757   134881111.403          34.000
G20  21001862.457   110365584.536         462.399          51.000    21001865.584    85998956.682          42.000
G26                                                                                                                  25675933.466   105138728.955       -2697.668          39.000    25675930.821   100757988.755          45.000
G27  24985532.207   131299839.093        2839.316          33.000    24985539.283   102311604.584          26.000    24985540.087   102311635.597                          39.000    24985536.138    98048613.793          40.000
G29                                                                                                                  25293686.457   103573189.624       -1939.978          33.000
G30  22158870.097   116445657.527        2743.158          47.000    22158877.120    90736989.373          48.000    22158877.638    90736980.370                          48.000    22158875.083    86956275.550          54.000
R03  20926017.729   112018701.089       -3191.143          49.000    20926016.889   112018690.101          47.000    20926021.249    87125701.130          50.000    20926020.659    87125699.128          48.000
R04  19121391.791   102394286.340         353.075          54.000    19121391.112   102394311.354          52.000    19121393.918    79640073.197          54.000    19121393.578    79640067.196          52.000
R05  21583891.022   115378322.594        3591.739          47.000    21583890.593   115378308.601          46.000    21583895.204    89738873.572          46.000    21583894.721    89738783.577          45.000
R12  22800038.410   121793708.886       -3921.707          42.000    22800037.516   121793783.904          41.000    22800043.002    94728559.688          44.000    22800043.538    94728536.689          43.000
R13  20084702.099   107251243.797       -1032.708          42.000    20084700.974   107251248.813          40.000    20084704.601    83417641.463          44.000    20084704.351    83417640.458          45.000
R14  21128688.723   112627885.331        3595.704          49.000    21128687.722   112627825.334          47.000    21128693.798    87599479.229          49.000    21128693.208    87599480.234          47.000
R20  21795401.787   116549811.609       -2239.018          37.000    21795401.554   116549804.625          36.000    21795408.916    90649877.704          38.000    21795407.737    90649867.741          38.000
R21  22276291.557   119204919.315        1883.265          45.000    22276289.752   119204889.311          43.000    22276295.041    92714966.659          42.000    22276295.631    92714966.650          42.000
E04  24512442.212   128813868.780       -1836.528          50.000    24512437.030   104556729.112          56.000    24512441.104    98701588.129          53.000    24512443.016    97446922.257          57.000    24512442.659    96192240.800          53.000
E05  25473980.074   133866704.317        2790.051          42.000    25473974.123   108658031.491          46.000    25473981.271   102573211.923          45.000    25473982.968   101269323.252          49.000    25473982.325    99965423.976          44.000
E09  23626653.944   124158987.416         806.708          52.000    23626648.976   100778406.956          59.000    23626653.640    95134849.034          56.000    23626655.624    93925520.562          59.000    23626655.552    92716178.497          56.000
E15  27878242.372   146501144.568        2484.473          39.000    27878239.709   118913255.643          44.000    27878247.518   112254147.110          44.000    27878249.144   110827195.092          47.000    27878249.680   109400235.470          43.000
E21  26521592.108   139371982.372       -1468.762          43.000    26521590.106   113126642.466          50.000    26521593.912   106791573.879          47.000    26521595.950   105434069.698          51.000    26521595.771   104076544.910          47.000
E31  27294435.321   143433181.121        3206.235          40.000    27294432.569   116423079.395          47.000    27294439.287   109903381.299          43.000    27294442.432   108506312.645          49.000    27294442.754   107109236.405          46.000
E34  25628022.291   134676262.339           4.757          46.000    25628019.432   109315172.095          51.000    25628025.061   103193551.737          51.000    25628026.812   101881781.251          54.000    25628026.794   100570002.184          49.000
E36  26282241.995   138114188.721       -2648.000          43.000    26282238.457   112105667.938          49.000    26282244.479   105827804.609          47.000    26282246.784   104482546.608          51.000    26282247.088   103137278.013          47.000
C05  40610613.820   211470345.500         -63.715          33.000    40610607.566   171836750.887          38.000    40610609.692   163522100.190          40.000
C06  39646176.263   206448152.070       -1215.243          36.000    39646165.059   167755965.586          38.000    39646169.848   159638816.726          40.000
C12  26129880.127   136065021.487        1803.799          34.000    26129870.335   110564057.356          41.000    26129875.945   105214208.430          42.000
C16  40680089.671   211832080.635       -1228.472          32.000    40680083.417   172130868.544          36.000    40680090.279   163802006.689          39.000
C19  24318678.550   126633872.810        2770.726          45.000    24318668.043   102900384.328          48.000                                                    24318676.477    95431861.792          50.000    24318674.637    97921381.966          45.000    24318678.085   127795799.541          46.000
C20  21862050.240   113841552.021         149.341          54.000    21862037.321    92505562.423          54.000                                                    21862044.933    85791498.558          57.000    21862043.361    88029517.397          52.000    21862049.275   114885953.103          54.000
C23  23180447.393   120706763.249       -1030.486          49.000    23180431.562    98084124.981          51.000                                                    23180438.602    90965125.887          55.000    23180436.547    93338146.714          49.000    23180446.482   121814164.186          50.000
C25  26134490.889   136089232.652       -3203.234          39.000    26134482.258   110583599.085          41.000                                                    26134486.797   102557424.442          42.000    26134485.993   105232828.670          38.000    26134488.887   137337730.180          38.000
C32  24008317.476   125017683.503       -2869.317          46.000    24008311.919   101587097.774          48.000                                                    24008319.013    94213890.939          50.000    24008316.994    96671601.571          46.000    24008317.762   126164627.327          47.000
C37  23313673.593   121400458.774        2208.812          49.000    23313669.608    98647800.931          51.000                                                    23313674.987    91487924.480          53.000    23313673.343    93874547.857          48.000    23313672.932   122514218.309          50.000
C39  41260486.688   214854273.301       -1336.135          33.000    41260478.164   174586685.150          37.000                                                    41260484.293   161915100.928          37.000    41260482.256   166138968.850          30.000    41260487.027   216825406.938          35.000
C40  40492523.809   210855273.922        2012.975          38.000    40492516.179   171337164.605          40.000                                                    40492522.272   158901429.922          44.000    40492520.181   163046687.008          38.000    40492524.041   212789691.552          39.000
C44  25392740.419   132226622.624         422.658          39.000    25392734.862   107444935.221          44.000                                                    25392741.509    99646507.154          44.000    25392739.615   102246029.167          38.000    25392738.185   133439708.469          35.000
C60  41468838.209   215939102.965         -27.903          35.000    41468818.982   175468145.060          40.000                                                                                                    41468826.147   166977817.787          41.000
> 2024 05 10 22 00 24.0000000  0 43
G04  24640497.563   129486755.392       -3648.232          35.000    24640505.032   100899030.045          20.000    24640504.782   100899026.046                          41.000    24640506.944    96694905.932          46.000    24640496.384   129486989.403          38.000
G05  22252590.782   116938200.078        2605.714          45.000    22252595.714    91120735.063          45.000    22252596.232    91120724.074                          47.000
G07  21110984.363   110938989.555         751.350          51.000    21110988.277    86445811.099          54.000    21110988.830    86445808.111                          52.000
G09  21452685.416   112734703.971       -2545.122          48.000    21452691.081    87845353.655          51.000    21452691.241    87845344.660                          49.000    21452689.597    84185116.286          54.000
G11  23687431.137   124478442.454       -3077.871          40.000    23687436.891    96996178.750          28.000    23687437.534    96996171.746                          44.000    23687439.750    92954724.032          48.000    23687429.654   124478561.455          41.000
G13  24276177.794   127572178.942        3784.514          32.000
G16  23059604.212   121178978.341       -1755.481          41.000    23059608.966    94425315.054          30.000
G18  25666427.289   134878116.954        3142.345          32.000    25666435.062   105099738.649          19.000    25666435.741   105099848.679                          40.000    25666437.617   100720585.387          41.000    25666425.806   134877968.981          34.000
G20  21001774.470   110365122.533         461.790          50.000    21001777.740    85998596.676          42.000
G26                                                                                                                  25676592.226   105141426.755       -2697.918          39.000    25676589.527   100760574.154          44.000
G27  24984991.794   131296999.844        2839.112          32.000    24984999.013   102309392.127          23.000    24984999.943   102309423.134                          38.000    24984995.994    98046493.507          39.000
G29                                                                                                                  25294160.361   103575130.222       -1940.671          35.000
G30  22158347.928   116442914.563        2742.864          47.000    22158355.094    90734851.984          48.000    22158355.755    90734842.971                          48.000    22158353.093    86954227.202          54.000
R03  20926613.839   112021892.478       -3191.522          49.000    20926613.107   112021881.496          48.000    20926617.288    87128183.319          50.000    20926616.805    87128181.310          48.000
R04  19121325.926   102393933.671         352.441          54.000    19121325.104   102393958.678          52.000    19121327.731    79639798.891          54.000    19121327.570    79639792.891          52.000
R05  21583218.950   115374730.988        3591.540          48.000    21583218.879   115374716.991          46.000    21583222.739    89736080.121          47.000    21583222.917    89735990.106          45.000
R12  22800772.648   121797630.736       -3921.859          41.000    22800771.522   121797705.747          41.000    22800777.043    94731610.006          44.000    22800777.883    94731586.993          42.000
R13  20084895.371   107252277.072       -1033.549          42.000    20084894.406   107252282.067          39.000    20084897.551    83418445.084          44.000    20084897.998    83418444.082          45.000
R14  21128014.400   112624289.951        3595.169          49.000    21128013.274   112624229.940          47.000    21128019.224    87596682.827          49.000    21128018.545    87596683.839          47.000
R20  21795820.619   116552051.015       -2239.653          37.000    21795820.440   116552044.033          35.000    21795826.498    90651619.441          38.000    21795826.569    90651609.457          38.000
R21  22275939.626   119203036.567        1882.493          44.000    22275937.482   119203006.572          43.000    22275943.182    92713502.271          43.000    22275943.879    92713502.285          41.000
E04  24512791.730   128815705.478       -1836.805          50.000    24512786.584   104558219.952          56.000    24512790.586    98702995.480          54.000    24512792.534    97448311.722          57.000    24512792.230    96193612.377          53.000
E05  25473449.274   133863914.278        2790.051          42.000    25473443.163   108655766.847          46.000    25473450.418   102571074.108          46.000    25473452.062   101267212.602          49.000    25473451.490    99963340.499          44.000
E09  23626500.467   124158180.882         806.439          51.000    23626495.446   100777752.304          59.000    23626500.199    95134231.044          56.000    23626502.165    93924910.425          59.000    23626502.111    92715576.218          56.000
E15  27877769.718   146498660.188        2484.134          39.000    27877766.823   118911239.089          43.000    27877774.954   112252243.409          43.000    27877776.401   110825315.597          46.000    27877776.991   109398380.168          42.000
E21  26521871.454   139373451.330       -1469.148          44.000    26521869.649   113127834.796          50.000    26521873.455   106792699.487          47.000    26521875.493   105435180.995          51.000    26521875.296   104077641.901          47.000
E31  27293825.576   143429974.843        3206.239          40.000    27293822.234   116420476.906          47.000    27293829.025   109900924.565          44.000    27293832.241   108503887.134          49.000    27293832.652   107106842.128          46.000
E34  25628021.648   134676257.890           4.256          46.000    25628018.467   109315168.481          52.000    25628024.275   103193548.333          51.000    25628025.954   101881777.888          54.000    25628025.954   100569998.860          49.000
E36  26282745.919   138116836.846       -2648.253          44.000    26282742.095   112107817.385          49.000    26282748.528   105829833.667          48.000    26282750.744   104484549.874          52.000    26282751.048   103139255.488          48.000
C05  40610625.935   211470409.096         -63.584          33.000    40610619.824   171836802.545          37.000    40610622.183   163522149.355          40.000
C06  39646409.632   206449367.388       -1215.281          36.000    39646398.428   167756953.127          38.000    39646403.128   159639756.482          40.000
C12  26129534.040   136063218.015        1803.466          34.000    26129524.230   110562591.887          41.000    26129529.930   105212813.872          43.000
C16  40680325.739   211833309.049       -1228.365          33.000    40680319.288   172131866.714          36.000    40680326.311   163802956.556          40.000
C19  24318146.339   126631102.209        2770.536          45.000    24318135.904   102898132.990          48.000                                                    24318144.374    95429773.847          50.000    24318142.551    97919239.571          45.000    24318145.875   127793003.513          45.000
C20  21862021.632   113841402.933         148.945          54.000    21862008.713    92505441.278          54.000                                                    21862016.289    85791386.199          57.000    21862014.717    88029402.111          52.000    21862020.631   114885802.642          54.000
C23  23180645.311   120707794.025       -1030.940          49.000    23180629.515    98084962.578          51.000                                                    23180636.591    90965902.693          54.000    23180634.518    93338943.784          49.000    23180644.417   121815204.419          50.000
C25  26135105.726   136092435.923       -3203.497          38.000    26135097.345   110586202.017          41.000                                                    26135101.991   102559838.419          40.000    26135101.116   105235305.649          37.000    26135103.886   137340962.833          38.000
C32  24008868.807   125020552.965       -2869.568          46.000    24008863.071   101589429.447          48.000                                                    24008870.094    94216053.376          51.000    24008868.021    96673820.423          46.000    24008868.861   126167523.111          47.000
C37  23313249.329   121398250.185        2208.443          49.000    23313245.487    98646006.283          50.000                                                    23313250.812    91486260.087          53.000    23313249.257    93872840.051          48.000    23313248.739   122511989.446          49.000
C39  41260743.358   214855609.532       -1336.190          33.000    41260734.710   174587770.943          36.000                                                    41260741.017   161916107.942          38.000    41260738.909   166140002.100          29.000    41260743.823   216826755.419          35.000
C40  40492136.819   210853260.755        2013.173          37.000    40492129.600   171335528.728          40.000                                                    40492135.640   158899912.813          44.000    40492133.567   163045130.291          38.000    40492137.534   212787659.933          38.000
C44  25392659.329   132226200.363         422.156          38.000    25392653.790   107444592.107          44.000                                                    25392660.330    99646188.948          45.000    25392658.525   102245702.653          38.000    25392656.989   133439282.328          35.000
C60  41468843.820   215939130.795         -27.790          35.000    41468824.325   175468167.662          40.000                                                                                                    41468831.526   166977839.293          41.000
> 2024 05 10 22 00 25.0000000  0 43
G04  24641191.792   129490403.625       -3648.386          36.000    24641199.226   100901872.814          20.000    24641199.012   100901868.840                          41.000    24641201.174    96697630.266          46.000    24641190.649   129490637.617          38.000
G05  22252095.006   116935594.737        2605.037          45.000    22252099.884    91118704.918          45.000    22252100.313    91118693.926                          46.000
G07  21110841.518   110938238.518         750.744          51.000    21110845.289    86445225.876          54.000    21110845.932    86445222.878                          52.000
G09  21453169.649   112737249.318       -2545.632          48.000    21453175.331    87847337.063          51.000    21453175.831    87847328.065                          49.000    21453173.902    84187017.049          54.000
G11  23688016.901   124481520.570       -3078.396          40.000    23688022.637    96998577.248          27.000    23688023.388    96998570.240                          44.000    23688025.514    92957022.601          48.000    23688015.293   124481639.554          41.000
G13  24275457.761   127568394.642        3784.103          32.000
G16  23059938.327   121180734.341       -1756.290          41.000    23059943.098    94426683.382          29.000
G18  25665829.427   134874974.840        3141.933          33.000    25665837.164   105097290.237          19.000    25665837.986   105097400.231                          40.000    25665839.773   100718238.962          41.000    25665827.676   134874826.862          35.000
G20  21001686.715   110364661.185         461.018          50.000    21001689.985    85998237.188          42.000
G26                                                                                                                  25677250.949   105144124.727       -2698.288          38.000    25677248.519   100763159.692          43.000
G27  24984451.524   131294161.061        2838.527          32.000    24984458.779   102307180.030          26.000    24984459.941   102307211.031                          38.000    24984455.831    98044373.565          40.000
G29  25294625.420   132924126.248       -2490.975          31.000    25294633.390   103577309.039          22.000    25294634.569   103577071.024                          35.000
G30  22157826.010   116440172.007        2742.308          47.000    22157833.265    90732714.907          48.000    22157833.855    90732705.921                          48.000    22157831.264    86952179.203          54.000
R03  20927209.950   112025084.264       -3192.058          49.000    20927209.378   112025073.276          48.000    20927213.577    87130665.823          50.000    20927213.059    87130663.815          48.000
R04  19121260.293   102393581.683         351.615          53.000    19121259.418   102393606.691          52.000    19121262.187    79639525.116          53.000    19121262.009    79639519.114          52.000
R05  21582546.986   115371139.645        3591.154          47.000    21582546.754   115371125.654          46.000    21582551.346    89733286.840          47.000    21582551.114    89733196.838          45.000
R12  22801506.779   121801552.979       -3922.436          41.000    22801505.975   121801628.005          41.000    22801511.121    94734660.655          44.000    22801512.300    94734637.638          42.000
R13  20085089.214   107253311.253       -1034.668          42.000    20085087.981   107253316.239          39.000    20085091.483    83419249.412          44.000    20085091.716    83419248.417          45.000
R14  21127340.130   112620695.128        3594.534          49.000    21127338.951   112620635.122          47.000    21127344.776    87593886.865          50.000    21127344.311    87593887.863          47.000
R20  21796239.344   116554291.268       -2240.816          37.000    21796239.290   116554284.263          35.000    21796245.705    90653361.858          39.000    21796245.723    90653351.874          38.000
R21  22275587.339   119201154.640        1881.513          44.000    22275586.267   119201124.648          44.000    22275591.466    92712038.515          43.000    22275592.306    92712038.520          41.000
E04  24513141.177   128817542.413       -1837.129          50.000    24513136.155   104559710.983          56.000    24513140.122    98704403.013          54.000    24513142.070    97449701.372          57.000    24513141.766    96194984.134          54.000
E05  25472918.546   133861124.316        2789.849          42.000    25472912.185   108653502.265          46.000    25472919.547   102568936.336          46.000    25472921.155   101265102.005          49.000    25472920.673    99961257.082          44.000
E09  23626347.008   124157374.663         805.988          52.000    23626342.022   100777097.911          59.000    23626346.722    95133613.302          56.000    23626348.723    93924300.538          59.000    23626348.687    92714974.178          56.000
E15  27877297.011   146496176.344        2483.816          39.000    27877294.027   118909222.982          43.000    27877302.032   112250340.287          43.000    27877303.748   110823436.668          47.000    27877304.141   109396525.440          43.000
E21  26522151.015   139374920.805       -1469.663          44.000    26522149.014   113129027.563          50.000    26522152.909   106793825.440          47.000    26522155.089   105436292.646          51.000    26522154.875   104078739.247          47.000
E31  27293215.492   143426768.656        3206.043          40.000    27293212.293   116417874.484          47.000    27293218.780   109898467.874          43.000    27293222.121   108501461.670          49.000    27293222.568   107104447.895          46.000
E34  25628020.737   134676253.970           3.626          46.000    25628017.895   109315165.306          52.000    25628023.506   103193545.336          51.000    25628025.204   101881774.929          54.000    25628025.168   100569995.943          49.000
E36  26283249.862   138119485.265       -2648.620          44.000    26283246.181   112109967.052          49.000    26283252.453   105831862.953          47.000    26283254.704   104486553.368          51.000    26283254.972   103141233.194          47.000
C05  40610638.122   211470472.710         -63.703          33.000    40610631.975   171836854.248          38.000    40610634.209   163522198.547          39.000
C06  39646643.109   206450582.697       -1215.446          36.000    39646631.726   167757940.662          38.000    39646636.354   159640696.236          40.000
C12  26129187.434   136061415.051        1802.807          35.000    26129177.999   110561126.864          41.000    26129183.771   105211419.747          43.000
C16  40680561.503   211834537.455       -1228.443          34.000    40680555.392   172132864.871          36.000    40680562.218   163803906.408          39.000
C19  24317614.182   126628331.807        2770.211          45.000    24317603.961   102895881.807          47.000                                                    24317612.431    95427686.052          50.000    24317610.554    97917097.307          45.000    24317614.003   127790207.708          45.000
C20  21861993.131   113841254.291         148.340          54.000    21861980.104    92505320.491          54.000                                                    21861987.806    85791274.188          57.000    21861986.216    88029287.165          52.000    21861992.148   114885652.645          54.000
C23  23180843.407   120708825.316       -1031.580          49.000    23180827.503    98085800.598          51.000                                                    23180834.597    90966679.878          54.000    23180832.542    93339741.255          49.000    23180842.478   121816245.171          50.000
C25  26135720.867   136095639.380       -3203.619          37.000    26135712.558   110588805.096          41.000                                                    26135717.115   102562252.619          40.000    26135716.257   105237782.781          38.000    26135719.045   137344195.703          38.000
C32  24009419.834   125023422.668       -2869.839          47.000    24009414.170   101591761.311          48.000                                                    24009421.174    94218215.998          51.000    24009419.102    96676039.455          46.000    24009419.906   126170419.154          47.000
C37  23312825.601   121396041.980        2207.958          49.000    23312821.419    98644211.936          51.000                                                    23312826.709    91484595.985          54.000    23312825.118    93871132.527          48.000    23312824.672   122509761.005          50.000
C39  41261000.386   214856945.799       -1336.306          33.000    41260991.309   174588856.778          36.000                                                    41260997.563   161917114.945          38.000    41260995.544   166141035.404          29.000    41261000.476   216828103.913          34.000
C40  40491750.616   210851247.713        2012.933          37.000    40491743.057   171333892.955          41.000                                                    40491749.026   158898395.743          45.000    40491747.006   163043573.659          38.000    40491750.830   212785628.435          38.000
C44  25392578.472   132225778.652         421.359          38.000    25392572.808   107444249.427          44.000                                                    25392579.383    99645871.131          44.000    25392577.579   102245376.561          38.000    25392576.113   133438856.739          36.000
C60  41468849.091   215939158.558         -27.882          35.000    41468829.685   175468190.225          40.000                                                                                                    41468836.851   166977860.751          41.000
> 2024 05 10 22 00 26.0000000  0 43
G04  24641885.968   129494051.957       -3648.343          36.000    24641893.598   100904715.698          20.000    24641893.205   100904711.676                          41.000    24641895.457    96700354.654          47.000    24641884.807   129494285.950          38.000
G05  22251599.212   116932989.874        2604.691          45.000    22251604.394    91116675.148          45.000    22251604.644    91116664.156                          47.000
G07  21110698.584   110937488.007         750.326          51.000    21110702.551    86444641.055          54.000    21110703.069    86444638.052                          52.000
G09  21453654.185   112739795.051       -2545.913          48.000    21453659.832    87849320.763          51.000    21453660.153    87849311.774                          48.000    21453658.349    84188918.108          54.000
G11  23688602.648   124484599.018       -3078.620          40.000    23688608.545    97000976.022          28.000    23688609.099    97000969.032                          45.000    23688611.350    92959321.420          48.000    23688601.040   124484718.025          41.000
G13  24274737.890   127564610.404        3784.235          32.000
G16  23060272.603   121182490.978       -1756.928          41.000    23060277.410    94428052.206          28.000
G18  25665231.494   134871833.023        3141.759          33.000    25665239.428   105094842.029          18.000    25665240.071   105094952.059                          40.000    25665241.947   100715892.761          41.000    25665229.761   134871685.059          34.000
G20  21001599.050   110364200.500         460.460          50.000    21001602.373    85997878.211          42.000
G26                                                                                                                  25677909.852   105146822.863       -2698.236          38.000    25677907.439   100765745.439          43.000
G27  24983911.254   131291322.663        2838.208          29.000    24983918.920   102304968.234          25.000    24983919.778   102304999.242                          39.000    24983915.686    98042253.934          39.000
G29  25295099.414   132926617.366       -2491.380          31.000    25295107.651   103579250.176          22.000    25295108.545   103579012.129                          34.000
G30  22157304.395   116437429.864        2741.972          47.000    22157311.275    90730578.175          48.000    22157312.079    90730569.205                          48.000    22157309.452    86950131.515          54.000
R03  20927806.454   112028276.483       -3192.379          49.000    20927805.649   112028265.510          48.000    20927810.152    87133148.661          50.000    20927809.509    87133146.659          48.000
R04  19121194.607   102393230.410         351.018          53.000    19121193.928   102393255.424          52.000    19121196.465    79639251.892          53.000    19121196.483    79639245.899          51.000
R05  21581875.164   115367548.564        3590.970          47.000    21581875.271   115367534.567          46.000    21581879.435    89730493.771          47.000    21581879.399    89730403.773          45.000
R12  22802240.874   121805475.574       -3922.693          41.000    22802240.409   121805550.582          41.000    22802245.413    94737711.514          44.000    22802246.485    94737688.504          42.000
R13  20085283.218   107254346.380       -1035.422          42.000    20085282.039   107254351.368          40.000    20085285.523    83420054.506          44.000    20085285.595    83420053.509          45.000
R14  21126665.682   112617100.834        3594.084          49.000    21126664.449   112617040.835          47.000    21126670.721    87591091.308          49.000    21126669.970    87591092.313          47.000
R20  21796658.819   116556532.310       -2241.283          37.000    21796658.140   116556525.323          35.000    21796664.626    90655104.893          39.000    21796664.483    90655094.920          38.000
R21  22275236.105   119199273.585        1880.723          44.000    22275234.801   119199243.599          43.000    22275240.519    92710575.466          43.000    22275240.626    92710575.475          41.000
E04  24513490.856   128819379.595       -1837.312          50.000    24513485.870   104561202.202          56.000    24513489.730    98705810.729          54.000    24513491.660    97451091.188          57.000    24513491.356    96196356.058          53.000
E05  25472387.551   133858334.454        2789.818          42.000    25472381.511   108651237.755          46.000    25472388.587   102566798.638          46.000    25472390.302   101262991.474          49.000    25472389.695    99959173.734          44.000
E09  23626193.709   124156568.787         805.735          51.000    23626188.688   100776443.795          59.000    23626193.370    95132995.813          56.000    23626195.371    93923690.899          59.000    23626195.336    92714372.398          55.000
E15  27876824.536   146493692.789        2483.685          39.000    27876821.498   118907207.161          43.000    27876829.432   112248437.395          44.000    27876831.112   110821557.938          48.000    27876831.505   109394670.915          44.000
E21  26522430.719   139376390.621       -1469.890          44.000    26522428.771   113130220.609          50.000    26522432.720   106794951.675          48.000    26522434.775   105437404.554          51.000    26522434.579   104079836.845          47.000
E31  27292605.193   143423562.606        3206.055          40.000    27292602.120   116415272.176          47.000    27292608.749   109896011.277          43.000    27292612.019   108499036.327          48.000    27292612.501   107102053.779          46.000
E34  25628020.111   134676250.598           3.158          47.000    25628017.163   109315162.589          52.000    25628022.827   103193542.768          50.000    25628024.561   101881772.405          54.000    25628024.525   100569993.456          49.000
E36  26283753.947   138122133.992       -2648.856          43.000    26283750.373   112112116.979          49.000    26283756.645   105833892.499          47.000    26283758.754   104488557.110          51.000    26283759.022   103143211.131          48.000
C05  40610650.112   211470536.335         -63.622          33.000    40610644.180   171836905.951          37.000    40610646.395   163522247.753          38.000
C06  39646876.389   206451798.067       -1215.314          36.000    39646865.185   167758928.250          38.000    39646869.813   159641636.044          40.000
C12  26128841.472   136059612.509        1802.233          34.000    26128831.751   110559662.163          41.000    26128837.362   105210025.925          43.000
C16  40680797.410   211835765.910       -1228.391          34.000    40680791.245   172133863.074          36.000    40680798.393   163804856.314          40.000
C19  24317082.489   126625561.663        2770.050          45.000    24317071.946   102893630.831          48.000                                                    24317080.434    95425598.440          50.000    24317078.594    97914955.249          45.000    24317081.917   127787412.139          46.000
C20  21861964.576   113841106.175         147.914          54.000    21861951.693    92505200.135          54.000                                                    21861959.323    85791162.561          57.000    21861957.768    88029172.632          52.000    21861963.647   114885503.161          54.000
C23  23181041.485   120709857.136       -1032.032          50.000    23181025.653    98086639.043          51.000                                                    23181032.783    90967457.464          54.000    23181030.638    93340539.137          49.000    23181040.717   121817286.451          50.000
C25  26136336.330   136098843.117       -3203.761          36.000    26136327.681   110591408.425          41.000                                                    26136332.399   102564667.058          40.000    26136331.416   105240260.152          38.000    26136334.114   137347428.793          37.000
C32  24009970.915   125026292.650       -2870.111          47.000    24009965.304   101594093.404          48.000                                                    24009972.416    94220378.824          51.000    24009970.254    96678258.703          46.000    24009970.968   126173315.448          47.000
C37  23312401.408   121393834.245        2207.566          49.000    23312397.405    98642417.971          50.000                                                    23312402.730    91482932.227          53.000    23312401.176    93869425.366          48.000    23312400.711   122507533.008          49.000
C39  41261256.574   214858282.030       -1336.525          32.000    41261247.890   174589942.597          36.000                                                    41261254.269   161918121.935          38.000    41261252.143   166142068.685          29.000    41261256.717   216829452.400          34.000
C40  40491364.020   210849234.759        2012.936          37.000    40491356.533   171332257.243          40.000                                                    40491362.394   158896878.738          44.000    40491360.428   163042017.086          38.000    40491364.341   212783596.996          38.000
C44  25392497.668   132225357.502         421.010          38.000    25392492.004   107443907.206          44.000                                                    25392498.544    99645553.744          44.000    25392496.704   102245050.888          38.000    25392495.345   133438431.770          36.000
C60  41468854.416   215939186.351         -27.897          34.000    41468835.010   175468212.804          39.000                                                                                                    41468842.211   166977882.241          40.000
> 2024 05 10 22 00 27.0000000  0 43
G04  24642580.662   129497700.310       -3648.321          37.000    24642587.774   100907558.563          21.000    24642587.274   100907554.555                          40.000    24642589.650    96703079.069          46.000    24642579.018   129497934.288          39.000
G05  22251103.525   116930385.466        2604.217          45.000    22251108.618    91114645.732          45.000    22251108.975    91114634.763                          47.000
G07  21110555.936   110936738.012         749.764          51.000    21110559.795    86444056.636          54.000    21110560.278    86444053.647                          53.000
G09  21454138.775   112742341.161       -2546.255          48.000    21454144.297    87851304.765          51.000    21454144.654    87851295.776                          49.000    21454142.778    84190819.430          54.000
G11  23689188.841   124487677.803       -3078.978          40.000    23689194.577    97003375.050          26.000    23689194.953    97003368.051                          44.000    23689197.186    92961620.477          48.000    23689187.108   124487796.792          41.000
G13  24274017.822   127560826.251        3784.280          32.000
G16  23060607.129   121184248.322       -1757.630          41.000    23060611.811    94429421.584          29.000
G18  25664633.846   134868691.546        3141.462          33.000    25664641.566   105092394.098          17.000    25664642.084   105092504.158                          40.000    25664644.175   100713546.846          41.000    25664631.970   134868543.521          34.000
G20  21001511.438   110363740.449         459.789          50.000    21001514.905    85997519.723          42.000
G26                                                                                                                  25678569.111   105149521.212       -2698.287          37.000    25678566.342   100768331.361          42.000
G27  24983371.288   131288484.694        2837.986          31.000    24983378.865   102302756.811          26.000    24983379.526   102302787.874                          39.000    24983375.756    98040134.679          40.000
G29  25295573.783   132929108.927       -2491.785          31.000    25295581.842   103581191.641          22.000    25295582.842   103580953.663                          35.000
G30  22156782.834   116434688.074        2741.626          47.000    22156789.535    90728441.741          48.000    22156790.375    90728432.747                          48.000    22156787.659    86948084.083          54.000
R03  20928403.136   112031469.109       -3192.807          48.000    20928402.100   112031458.121          48.000    20928406.245    87135631.803          50.000    20928405.781    87135629.801          48.000
R04  19121129.242   102392879.801         350.322          54.000    19121128.491   102392904.809          52.000    19121131.118    79638979.192          53.000    19121131.029    79638973.189          52.000
R05  21581203.503   115363957.716        3590.714          47.000    21581203.432   115363943.722          46.000    21581207.828    89727700.887          47.000    21581207.524    89727610.885          45.000
R12  22802975.309   121809398.568       -3923.135          41.000    22802974.737   121809473.568          40.000    22802979.865    94740762.725          43.000    22802980.991    94740739.722          41.000
R13  20085477.222   107255382.347       -1036.291          42.000    20085475.792   107255387.351          40.000    20085479.473    83420860.256          44.000    20085479.616    83420859.254          45.000
R14  21125991.233   112613507.059        3593.565          49.000    21125990.429   112613447.059          47.000    21125996.326    87588296.159          49.000    21125995.736    87588297.156          48.000
R20  21797078.187   116558774.128       -2242.059          36.000    21797077.740   116558767.153          35.000    21797084.173    90656848.538          39.000    21797083.619    90656838.573          38.000
R21  22274884.961   119197393.373        1879.890          44.000    22274883.782   119197363.375          44.000    22274888.856    92709113.088          43.000    22274889.339    92709113.088          41.000
E04  24513840.552   128821217.006       -1837.506          50.000    24513835.513   104562693.617          56.000    24513839.337    98707218.622          54.000    24513841.321    97452481.186          57.000    24513841.071    96197728.162          54.000
E05  25471856.608   133855544.706        2789.674          42.000    25471850.622   108648973.344          46.000    25471857.716   102564661.032          46.000    25471859.449   101260881.042          49.000    25471858.913    99957090.468          44.000
E09  23626040.393   124155763.217         805.434          51.000    23626035.372   100775789.933          59.000    23626040.072    95132378.569          56.000    23626042.073    93923081.501          59.000    23626041.984    92713770.845          56.000
E15  27876351.847   146491209.356        2483.249          39.000    27876348.791   118905191.398          43.000    27876357.083   112246534.438          44.000    27876358.512   110819679.193          47.000    27876358.852   109392816.340          43.000
E21  26522710.530   139377860.847       -1470.361          43.000    26522708.582   113131413.956          50.000    26522712.460   106796078.170          47.000    26522714.568   105438516.735          51.000    26522714.336   104080934.704          47.000
E31  27291995.180   143420356.625        3206.006          40.000    27291992.160   116412669.920          47.000    27291998.558   109893554.759          42.000    27292001.935   108496611.032          48.000    27292002.364   107099659.717          46.000
E34  25628019.504   134676247.728           2.671          46.000    25628016.448   109315160.262          51.000    25628022.255   103193540.575          50.000    25628024.007   101881770.241          53.000    25628023.989   100569991.317          49.000
E36  26284258.086   138124782.995       -2649.148          43.000    26284254.404   112114267.134          49.000    26284260.712   105835922.250          47.000    26284262.874   104490561.057          51.000    26284263.142   103145189.276          48.000
C05  40610662.692   211470599.864         -63.419          33.000    40610656.313   171836957.564          37.000    40610658.564   163522296.873          39.000
C06  39647109.723   206453013.330       -1215.175          36.000    39647098.626   167759915.741          38.000    39647103.057   159642575.751          40.000
C12  26128495.563   136057810.359        1802.074          34.000    26128485.736   110558197.759          42.000    26128491.257   105208632.377          43.000
C16  40681033.585   211836994.405       -1228.671          33.000    40681027.188   172134861.333          36.000    40681034.210   163805806.272          39.000
C19  24316550.546   126622791.740        2769.813          45.000    24316540.021   102891380.020          47.000                                                    24316548.563    95423511.008          50.000    24316546.633    97912813.346          45.000    24316549.992   127784616.801          45.000
C20  21861936.343   113840958.501         147.479          54.000    21861923.299    92505080.140          54.000                                                    21861930.947    85791051.275          57.000    21861929.446    88029058.448          52.000    21861935.325   114885354.135          54.000
C23  23181239.706   120710889.412       -1032.483          50.000    23181223.910    98087477.848          51.000                                                    23181230.932    90968235.381          54.000    23181228.859    93341337.349          49.000    23181238.830   121818328.210          50.000
C25  26136951.471   136102046.908       -3203.830          38.000    26136942.983   110594011.805          41.000                                                    26136947.647   102567081.433          41.000    26136946.700   105242737.569          37.000    26136949.309   137350661.989          38.000
C32  24010522.264   125029162.865       -2870.307          46.000    24010516.438   101596425.681          48.000                                                    24010523.568    94222541.826          51.000    24010521.442    96680478.131          46.000    24010522.192   126176212.007          47.000
C37  23311977.358   121391626.935        2207.108          49.000    23311973.516    98640624.353          50.000                                                    23311978.806    91481268.787          53.000    23311977.305    93867718.535          48.000    23311976.769   122505305.441          49.000
C39  41261513.066   214859618.265       -1336.361          33.000    41261504.543   174591028.421          36.000                                                    41261510.797   161919128.981          38.000    41261508.778   166143101.971          30.000    41261513.459   216830800.873          35.000
C40  40490977.459   210847221.869        2012.894          37.000    40490969.990   171330621.593          40.000                                                    40490975.815   158895361.815          44.000    40490973.778   163040460.584          38.000    40490977.906   212781565.636          38.000
C44  25392416.740   132224936.939         420.357          38.000    25392411.200   107443565.459          44.000                                                    25392417.758    99645236.811          45.000    25392416.025   102244725.686          38.000    25392414.595   133438007.352          36.000
C60  41468860.009   215939214.114         -27.794          35.000    41468840.389   175468235.354          39.000                                                                                                    41468847.572   166977903.703          40.000
> 2024 05 10 22 00 28.0000000  0 43
G04  24643274.820   129501348.768       -3648.478          35.000    24643282.146   100910401.507          21.000    24643281.753   100910397.494                          41.000    24643283.844    96705803.561          46.000    24643273.426   129501582.749          38.000
G05  22250607.999   116927781.615        2603.671          45.000    22250613.163    91112616.767          45.000    22250613.556    91112605.768                          47.000
G07  21110413.448   110935988.565         749.231          50.000    21110417.040    86443472.652          54.000    21110417.736    86443469.663                          52.000
G09  21454623.365   112744887.666       -2546.682          48.000    21454628.815    87853289.071          51.000    21454629.190    87853280.059                          49.000    21454627.386    84192721.057          54.000
G11  23689774.659   124490756.979       -3079.295          41.000    23689780.628    97005774.378          27.000    23689780.949    97005767.395                          44.000    23689783.165    92963919.840          48.000    23689773.051   124490875.985          41.000
G13  24273297.808   127557042.300        3783.747          31.000
G16  23060941.423   121186006.347       -1758.322          41.000    23060946.230    94430791.503          29.000
G18  25664036.378   134865550.510        3140.771          33.000    25664043.865   105089946.537          17.000    25664044.526   105090056.517                          40.000    25664046.456   100711201.212          41.000    25664034.502   134865402.493          35.000
G20  21001424.005   110363281.094         459.096          50.000    21001427.489    85997161.767          42.000
G26                                                                                                                  25679228.300   105152219.791       -2698.820          37.000    25679225.244   100770917.495          43.000
G27  24982831.358   131285647.108        2837.486          30.000    24982838.756   102300545.714          26.000    24982839.560   102300576.709                          38.000    24982835.807    98038015.657          39.000
G29  25296048.062   132931600.969       -2492.235          31.000    25296056.175   103583133.492          22.000    25296056.836   103582895.434                          34.000
G30  22156260.934   116431946.674        2741.275          47.000    22156267.849    90726305.592          48.000    22156268.796    90726296.599                          48.000    22156265.955    86946036.936          54.000
R03  20928999.586   112034662.184       -3193.247          48.000    20928998.746   112034651.195          48.000    20929002.874    87138115.298          50.000    20929002.409    87138113.296          48.000
R04  19121063.734   102392529.895         349.654          54.000    19121063.109   102392554.905          52.000    19121065.324    79638707.042          53.000    19121065.557    79638701.035          52.000
R05  21580531.878   115360367.197        3590.338          47.000    21580531.771   115360353.197          46.000    21580536.185    89724908.251          47.000    21580535.845    89724818.242          46.000
R12  22803709.815   121813321.981       -3923.601          42.000    22803709.350   121813396.980          41.000    22803714.604    94743814.231          44.000    22803715.336    94743791.218          42.000
R13  20085671.172   107256419.275       -1037.217          42.000    20085670.136   107256424.275          40.000    20085673.745    83421666.751          44.000    20085673.978    83421665.749          45.000
R14  21125317.142   112609913.878        3592.981          49.000    21125316.499   112609853.882          47.000    21125322.110    87585501.467          49.000    21125321.878    87585502.472          48.000
R20  21797497.394   116561016.821       -2243.003          37.000    21797497.144   116561009.843          36.000    21797502.987    90658592.837          39.000    21797503.130    90658582.859          38.000
R21  22274533.763   119195514.097        1878.921          44.000    22274532.334   119195484.102          43.000    22274537.802    92707651.431          43.000    22274538.052    92707651.431          41.000
E04  24514190.160   128823054.713       -1837.798          50.000    24514185.049   104564185.253          56.000    24514189.052    98708626.730          54.000    24514191.017    97453871.391          58.000    24514190.660    96199100.460          54.000
E05  25471325.505   133852755.061        2789.614          42.000    25471319.591   108646709.015          46.000    25471326.792   102562523.516          46.000    25471328.597   101258770.704          49.000    25471327.882    99955007.296          44.000
E09  23625887.220   124154958.004         805.077          51.000    23625882.163   100775136.348          59.000    23625886.827    95131761.590          56.000    23625888.846    93922472.360          59.000    23625888.792    92713169.541          56.000
E15  27875879.104   146488726.373        2482.950          39.000    27875876.424   118903175.972          43.000    27875884.572   112244631.903          45.000    27875886.055   110817800.834          48.000    27875886.413   109390962.171          44.000
E21  26522990.341   139379331.566       -1470.914          43.000    26522988.536   113132607.700          50.000    26522992.289   106797205.053          47.000    26522994.469   105439629.307          52.000    26522994.218   104082032.940          47.000
E31  27291385.328   143417150.807        3205.792          40.000    27291382.166   116410067.803          47.000    27291388.348   109891098.376          42.000    27291391.833   108494185.861          48.000    27291392.262   107097265.767          46.000
E34  25628018.950   134676245.430           2.060          46.000    25628016.126   109315158.406          51.000    25628021.809   103193538.824          50.000    25628023.542   101881768.509          53.000    25628023.524   100569989.599          49.000
E36  26284762.367   138127432.356       -2649.479          44.000    26284758.472   112116417.577          49.000    26284764.851   105837952.271          47.000    26284767.049   104492565.261          51.000    26284767.371   103147167.677          48.000
C05  40610674.789   211470663.523         -63.668          33.000    40610668.517   171837009.300          37.000    40610670.983   163522346.101          38.000
C06  39647343.271   206454228.737       -1215.435          36.000    39647332.067   167760903.343          39.000    39647336.588   159643515.559          40.000
C12  26128149.315   136056008.852        1801.331          34.000    26128139.791   110556733.866          42.000    26128145.259   105207239.306          43.000
C16  40681269.009   211838222.837       -1228.502          34.000    40681263.076   172135859.517          37.000    40681270.063   163806756.153          39.000
C19  24316018.657   126620022.082        2769.576          46.000    24316008.150   102889129.444          48.000                                                    24316016.620    95421423.775          50.000    24316014.815    97910671.673          45.000    24316018.210   127781821.747          46.000
C20  21861907.914   113840811.347         146.958          54.000    21861895.048    92504960.561          54.000                                                    21861902.714    85790940.379          57.000    21861901.141    88028944.652          52.000    21861907.038   114885205.637          54.000
C23  23181437.999   120711922.313       -1033.103          50.000    23181422.256    98088317.151          51.000                                                    23181429.314    90969013.773          55.000    23181427.241    93342136.036          49.000    23181437.141   121819370.576          50.000
C25  26137566.773   136105250.929       -3204.113          37.000    26137558.339   110596615.361          40.000                                                    26137562.913   102569496.036          40.000    26137561.966   105245215.160          37.000    26137564.664   137353895.402          37.000
C32  24011073.380   125032033.382       -2870.627          46.000    24011067.698   101598758.214          48.000                                                    24011074.827    94224705.064          51.000    24011072.701    96682697.799          46.000    24011073.612   126179108.862          47.000
C37  23311553.737   121389420.073        2206.707          49.000    23311549.735    98638831.094          50.000                                                    23311554.988    91479605.691          53.000    23311553.505    93866012.051          48.000    23311553.040   122503078.330          49.000
C39  41261769.951   214860954.429       -1336.106          32.000    41261761.106   174592114.181          36.000                                                    41261767.396   161920135.969          38.000    41261765.413   166144135.208          30.000    41261770.130   216832149.329          34.000
C40  40490590.970   210845209.176        2012.721          37.000    40490583.465   171328986.111          40.000                                                    40490589.541   158893845.022          45.000    40490587.289   163038904.238          38.000    40490591.310   212779534.469          38.000
C44  25392336.061   132224516.970         419.865          38.000    25392330.575   107443224.195          44.000                                                    25392336.990    99644920.314          43.000    25392335.471   102244400.935          38.000    25392333.667   133437583.529          35.000
C60  41468865.030   215939241.910         -27.759          35.000    41468845.696   175468257.950          39.000                                                                                                    41468852.897   166977925.199          40.000
